[
  {
    "state": "AK",
    "name": "Anchorage Supercenter",
    "street_address": "3101 A St",
    "city": "Anchorage",
    "zip_code": 99503,
    "country": "US",
    "latitude": 61.192213,
    "longitude": -149.879549,
    "Coordinate": "61.192213, -149.879549"
  },
  {
    "state": "AK",
    "name": "Anchorage Supercenter",
    "street_address": "8900 Old Seward Hwy",
    "city": "Anchorage",
    "zip_code": 99515,
    "country": "US",
    "latitude": 61.140195,
    "longitude": -149.869863,
    "Coordinate": "61.140195, -149.869863"
  },
  {
    "state": "AK",
    "name": "Wasilla Supercenter",
    "street_address": "1350 S Seward Meridian Pkwy",
    "city": "Wasilla",
    "zip_code": 99654,
    "country": "US",
    "latitude": 61.568719,
    "longitude": -149.365105,
    "Coordinate": "61.568719, -149.365105"
  },
  {
    "state": "AK",
    "name": "Eagle River Supercenter",
    "street_address": "18600 Eagle River Rd",
    "city": "Eagle River",
    "zip_code": 99577,
    "country": "US",
    "latitude": 61.309037,
    "longitude": -149.535439,
    "Coordinate": "61.309037, -149.535439"
  },
  {
    "state": "AK",
    "name": "Kodiak Store",
    "street_address": "2911 Mill Bay Rd",
    "city": "Kodiak",
    "zip_code": 99615,
    "country": "US",
    "latitude": 57.811914,
    "longitude": -152.365176,
    "Coordinate": "57.811914, -152.365176"
  },
  {
    "state": "AK",
    "name": "Ketchikan Store",
    "street_address": "4230 Don King Rd",
    "city": "Ketchikan",
    "zip_code": 99901,
    "country": "US",
    "latitude": 55.375474,
    "longitude": -131.720399,
    "Coordinate": "55.375474, -131.720399"
  },
  {
    "state": "AK",
    "name": "Fairbanks Supercenter",
    "street_address": "537 Johansen Expy",
    "city": "Fairbanks",
    "zip_code": 99701,
    "country": "US",
    "latitude": 64.856378,
    "longitude": -147.689549,
    "Coordinate": "64.856378, -147.689549"
  },
  {
    "state": "AK",
    "name": "Anchorage Supercenter",
    "street_address": "7405 Debarr Road",
    "city": "Anchorage",
    "zip_code": 99504,
    "country": "US",
    "latitude": 61.211988,
    "longitude": -149.743184,
    "Coordinate": "61.211988, -149.743184"
  },
  {
    "state": "AK",
    "name": "Kenai Supercenter",
    "street_address": "10096 Kenai Spur Hwy",
    "city": "Kenai",
    "zip_code": 99611,
    "country": "US",
    "latitude": 60.564195,
    "longitude": -151.225131,
    "Coordinate": "60.564195, -151.225131"
  },
  {
    "state": "AL",
    "name": "Jasper Supercenter",
    "street_address": "1801 Highway 78 E",
    "city": "Jasper",
    "zip_code": 35501,
    "country": "US",
    "latitude": 33.8429292,
    "longitude": -87.254431,
    "Coordinate": "33.8429292, -87.254431"
  },
  {
    "state": "AL",
    "name": "Boaz Supercenter",
    "street_address": "1972 Hwy 431",
    "city": "Boaz",
    "zip_code": 35957,
    "country": "US",
    "latitude": 34.214766,
    "longitude": -86.153387,
    "Coordinate": "34.214766, -86.153387"
  },
  {
    "state": "AL",
    "name": "Gadsden Supercenter",
    "street_address": "340 E Meighan Blvd",
    "city": "Gadsden",
    "zip_code": 35903,
    "country": "US",
    "latitude": 34.012769,
    "longitude": -85.987031,
    "Coordinate": "34.012769, -85.987031"
  },
  {
    "state": "AL",
    "name": "Arab Supercenter",
    "street_address": "1450 No. Brindlee Mt",
    "city": "Arab",
    "zip_code": 35016,
    "country": "US",
    "latitude": 34.341887,
    "longitude": -86.500136,
    "Coordinate": "34.341887, -86.500136"
  },
  {
    "state": "AL",
    "name": "Jacksonville Supercenter",
    "street_address": "1625 Pelham Rd S",
    "city": "Jacksonville",
    "zip_code": 36265,
    "country": "US",
    "latitude": 33.78822,
    "longitude": -85.765028,
    "Coordinate": "33.78822, -85.765028"
  },
  {
    "state": "AL",
    "name": "Attalla Supercenter",
    "street_address": "973 Gilbert Ferry Rd Se",
    "city": "Attalla",
    "zip_code": 35954,
    "country": "US",
    "latitude": 33.993612,
    "longitude": -86.093629,
    "Coordinate": "33.993612, -86.093629"
  },
  {
    "state": "AL",
    "name": "Oneonta Supercenter",
    "street_address": "2453 2nd Ave E",
    "city": "Oneonta",
    "zip_code": 35121,
    "country": "US",
    "latitude": 33.971218,
    "longitude": -86.446599,
    "Coordinate": "33.971218, -86.446599"
  },
  {
    "state": "AL",
    "name": "Anniston Supercenter",
    "street_address": "5560 Mcclellan Blvd",
    "city": "Anniston",
    "zip_code": 36206,
    "country": "US",
    "latitude": 33.720093,
    "longitude": -85.820134,
    "Coordinate": "33.720093, -85.820134"
  },
  {
    "state": "AL",
    "name": "Huntsville Supercenter",
    "street_address": "6140a Univ Drive",
    "city": "Huntsville",
    "zip_code": 35806,
    "country": "US",
    "latitude": 34.747008,
    "longitude": -86.675822,
    "Coordinate": "34.747008, -86.675822"
  },
  {
    "state": "AL",
    "name": "Opelika Supercenter",
    "street_address": "2900 Pepperell Pkwy",
    "city": "Opelika",
    "zip_code": 36801,
    "country": "US",
    "latitude": 32.637874,
    "longitude": -85.421882,
    "Coordinate": "32.637874, -85.421882"
  },
  {
    "state": "AL",
    "name": "Auburn Supercenter",
    "street_address": "1717 S College St",
    "city": "Auburn",
    "zip_code": 36832,
    "country": "US",
    "latitude": 32.570858,
    "longitude": -85.49657,
    "Coordinate": "32.570858, -85.49657"
  },
  {
    "state": "AL",
    "name": "Winfield Supercenter",
    "street_address": "2575 Us Highway 43",
    "city": "Winfield",
    "zip_code": 35594,
    "country": "US",
    "latitude": 33.9352,
    "longitude": -87.840615,
    "Coordinate": "33.9352, -87.840615"
  },
  {
    "state": "AL",
    "name": "Huntsville Supercenter",
    "street_address": "3031 Memorial Pkwy Sw",
    "city": "Huntsville",
    "zip_code": 35801,
    "country": "US",
    "latitude": 34.7030172,
    "longitude": -86.5853922,
    "Coordinate": "34.7030172, -86.5853922"
  },
  {
    "state": "AL",
    "name": "Moulton Supercenter",
    "street_address": "15445 Highway 24",
    "city": "Moulton",
    "zip_code": 35650,
    "country": "US",
    "latitude": 34.4955794,
    "longitude": -87.2769413,
    "Coordinate": "34.4955794, -87.2769413"
  },
  {
    "state": "AL",
    "name": "Russellville Supercenter",
    "street_address": "13675 Highway 43",
    "city": "Russellville",
    "zip_code": 35653,
    "country": "US",
    "latitude": 34.495318,
    "longitude": -87.728925,
    "Coordinate": "34.495318, -87.728925"
  },
  {
    "state": "AL",
    "name": "Haleyville Supercenter",
    "street_address": "42466 Highway 195",
    "city": "Haleyville",
    "zip_code": 35565,
    "country": "US",
    "latitude": 34.2405233,
    "longitude": -87.5987915,
    "Coordinate": "34.2405233, -87.5987915"
  },
  {
    "state": "AL",
    "name": "Alabaster Supercenter",
    "street_address": "630 Colonial Promenade Pkwy",
    "city": "Alabaster",
    "zip_code": 35007,
    "country": "US",
    "latitude": 33.2355308,
    "longitude": -86.801229,
    "Coordinate": "33.2355308, -86.801229"
  },
  {
    "state": "AL",
    "name": "Brent Supercenter",
    "street_address": "10675 Highway 5",
    "city": "Brent",
    "zip_code": 35034,
    "country": "US",
    "latitude": 32.963956,
    "longitude": -87.171887,
    "Coordinate": "32.963956, -87.171887"
  },
  {
    "state": "AL",
    "name": "Clanton Supercenter",
    "street_address": "1415 7th St S",
    "city": "Clanton",
    "zip_code": 35045,
    "country": "US",
    "latitude": 32.816741,
    "longitude": -86.609419,
    "Coordinate": "32.816741, -86.609419"
  },
  {
    "state": "AL",
    "name": "Talladega Supercenter",
    "street_address": "214 Haynes St",
    "city": "Talladega",
    "zip_code": 35160,
    "country": "US",
    "latitude": 33.438556,
    "longitude": -86.080265,
    "Coordinate": "33.438556, -86.080265"
  },
  {
    "state": "AL",
    "name": "Huntsville Supercenter",
    "street_address": "11610 Memorial Pkwy Sw",
    "city": "Huntsville",
    "zip_code": 35803,
    "country": "US",
    "latitude": 34.61586,
    "longitude": -86.570681,
    "Coordinate": "34.61586, -86.570681"
  },
  {
    "state": "AL",
    "name": "Huntsville Supercenter",
    "street_address": "2200 Sparkman Dr Nw",
    "city": "Huntsville",
    "zip_code": 35810,
    "country": "US",
    "latitude": 34.765195,
    "longitude": -86.592346,
    "Coordinate": "34.765195, -86.592346"
  },
  {
    "state": "AL",
    "name": "Prattville Supercenter",
    "street_address": "1903 Cobbs Ford Rd",
    "city": "Prattville",
    "zip_code": 36066,
    "country": "US",
    "latitude": 32.463123,
    "longitude": -86.416339,
    "Coordinate": "32.463123, -86.416339"
  },
  {
    "state": "AL",
    "name": "Leeds Supercenter",
    "street_address": "8551 Whitfield Ave",
    "city": "Leeds",
    "zip_code": 35094,
    "country": "US",
    "latitude": 33.562105,
    "longitude": -86.518619,
    "Coordinate": "33.562105, -86.518619"
  },
  {
    "state": "AL",
    "name": "Dothan Supercenter",
    "street_address": "4310 Montgomery Hwy",
    "city": "Dothan",
    "zip_code": 36303,
    "country": "US",
    "latitude": 31.268054,
    "longitude": -85.441109,
    "Coordinate": "31.268054, -85.441109"
  },
  {
    "state": "AL",
    "name": "Muscle Shoals Supercenter",
    "street_address": "517 Avalon Ave",
    "city": "Muscle Shoals",
    "zip_code": 35661,
    "country": "US",
    "latitude": 34.74765,
    "longitude": -87.673673,
    "Coordinate": "34.74765, -87.673673"
  },
  {
    "state": "AL",
    "name": "Athens Supercenter",
    "street_address": "1011 Us Highway 72 E",
    "city": "Athens",
    "zip_code": 35611,
    "country": "US",
    "latitude": 34.78855,
    "longitude": -86.958843,
    "Coordinate": "34.78855, -86.958843"
  },
  {
    "state": "AL",
    "name": "Decatur Supercenter",
    "street_address": "2800 Spring Avn. S.w",
    "city": "Decatur",
    "zip_code": 35603,
    "country": "US",
    "latitude": 34.556416,
    "longitude": -86.995956,
    "Coordinate": "34.556416, -86.995956"
  },
  {
    "state": "AL",
    "name": "Cullman Supercenter",
    "street_address": "626 Olive St Sw",
    "city": "Cullman",
    "zip_code": 35055,
    "country": "US",
    "latitude": 34.14914,
    "longitude": -86.842052,
    "Coordinate": "34.14914, -86.842052"
  },
  {
    "state": "AL",
    "name": "Guntersville Supercenter",
    "street_address": "11697 Us Highway 431",
    "city": "Guntersville",
    "zip_code": 35976,
    "country": "US",
    "latitude": 34.299429,
    "longitude": -86.27903,
    "Coordinate": "34.299429, -86.27903"
  },
  {
    "state": "AL",
    "name": "Fort Payne Supercenter",
    "street_address": "2001 Glenn Blvd Sw",
    "city": "Fort Payne",
    "zip_code": 35968,
    "country": "US",
    "latitude": 34.440216,
    "longitude": -85.76195,
    "Coordinate": "34.440216, -85.76195"
  },
  {
    "state": "AL",
    "name": "Selma Supercenter",
    "street_address": "1501 Al Highway 14 E",
    "city": "Selma",
    "zip_code": 36703,
    "country": "US",
    "latitude": 32.434137,
    "longitude": -87.012949,
    "Coordinate": "32.434137, -87.012949"
  },
  {
    "state": "AL",
    "name": "Scottsboro Supercenter",
    "street_address": "24833 John T Reid Pkwy",
    "city": "Scottsboro",
    "zip_code": 35768,
    "country": "US",
    "latitude": 34.668517,
    "longitude": -86.006085,
    "Coordinate": "34.668517, -86.006085"
  },
  {
    "state": "AL",
    "name": "Tuscaloosa Supercenter",
    "street_address": "1501 Skyland Blvd E",
    "city": "Tuscaloosa",
    "zip_code": 35405,
    "country": "US",
    "latitude": 33.165251,
    "longitude": -87.518548,
    "Coordinate": "33.165251, -87.518548"
  },
  {
    "state": "AL",
    "name": "Troy Supercenter",
    "street_address": "1420 Highway 231 S",
    "city": "Troy",
    "zip_code": 36081,
    "country": "US",
    "latitude": 31.780755,
    "longitude": -85.939323,
    "Coordinate": "31.780755, -85.939323"
  },
  {
    "state": "AL",
    "name": "Alexander City Supercenter",
    "street_address": "2643 Highway 280",
    "city": "Alexander City",
    "zip_code": 35010,
    "country": "US",
    "latitude": 32.941317,
    "longitude": -85.975832,
    "Coordinate": "32.941317, -85.975832"
  },
  {
    "state": "AL",
    "name": "Valley Supercenter",
    "street_address": "3501 20th Ave",
    "city": "Valley",
    "zip_code": 36854,
    "country": "US",
    "latitude": 32.835031,
    "longitude": -85.178726,
    "Coordinate": "32.835031, -85.178726"
  },
  {
    "state": "AL",
    "name": "Sylacauga Supercenter",
    "street_address": "41301 Us Highway 280",
    "city": "Sylacauga",
    "zip_code": 35150,
    "country": "US",
    "latitude": 33.1759079,
    "longitude": -86.2854032,
    "Coordinate": "33.1759079, -86.2854032"
  },
  {
    "state": "AL",
    "name": "Demopolis Supercenter",
    "street_address": "969 Us Highway 80 W",
    "city": "Demopolis",
    "zip_code": 36732,
    "country": "US",
    "latitude": 32.493003,
    "longitude": -87.849349,
    "Coordinate": "32.493003, -87.849349"
  },
  {
    "state": "AL",
    "name": "Enterprise Supercenter",
    "street_address": "600 Boll Weevil Cir",
    "city": "Enterprise",
    "zip_code": 36330,
    "country": "US",
    "latitude": 31.3159,
    "longitude": -85.826397,
    "Coordinate": "31.3159, -85.826397"
  },
  {
    "state": "AL",
    "name": "Ozark Supercenter",
    "street_address": "1537 S Us Highway 231",
    "city": "Ozark",
    "zip_code": 36360,
    "country": "US",
    "latitude": 31.4452218,
    "longitude": -85.6507187,
    "Coordinate": "31.4452218, -85.6507187"
  },
  {
    "state": "AL",
    "name": "Birmingham Supercenter",
    "street_address": "9248 Parkway E",
    "city": "Birmingham",
    "zip_code": 35206,
    "country": "US",
    "latitude": 33.590204,
    "longitude": -86.70022,
    "Coordinate": "33.590204, -86.70022"
  },
  {
    "state": "AL",
    "name": "Bessemer Supercenter",
    "street_address": "750 Academy Dr",
    "city": "Bessemer",
    "zip_code": 35022,
    "country": "US",
    "latitude": 33.361719,
    "longitude": -87.001921,
    "Coordinate": "33.361719, -87.001921"
  },
  {
    "state": "AL",
    "name": "Florence Supercenter",
    "street_address": "3100 Hough Rd",
    "city": "Florence",
    "zip_code": 35630,
    "country": "US",
    "latitude": 34.834244,
    "longitude": -87.625236,
    "Coordinate": "34.834244, -87.625236"
  },
  {
    "state": "AL",
    "name": "Oxford Supercenter",
    "street_address": "92 Plaza Ln",
    "city": "Oxford",
    "zip_code": 36203,
    "country": "US",
    "latitude": 33.599042,
    "longitude": -85.832144,
    "Coordinate": "33.599042, -85.832144"
  },
  {
    "state": "AL",
    "name": "Mobile Supercenter",
    "street_address": "685 Schillinger Rd S",
    "city": "Mobile",
    "zip_code": 36695,
    "country": "US",
    "latitude": 30.6781469,
    "longitude": -88.2225698,
    "Coordinate": "30.6781469, -88.2225698"
  },
  {
    "state": "AL",
    "name": "Roanoke Supercenter",
    "street_address": "4180 Us Hwy 431",
    "city": "Roanoke",
    "zip_code": 36274,
    "country": "US",
    "latitude": 33.164864,
    "longitude": -85.364371,
    "Coordinate": "33.164864, -85.364371"
  },
  {
    "state": "AL",
    "name": "Mobile Supercenter",
    "street_address": "5245 Rangeline Service Rd S",
    "city": "Mobile",
    "zip_code": 36619,
    "country": "US",
    "latitude": 30.593568,
    "longitude": -88.162839,
    "Coordinate": "30.593568, -88.162839"
  },
  {
    "state": "AL",
    "name": "Foley Supercenter",
    "street_address": "2200 S Mckenzie St",
    "city": "Foley",
    "zip_code": 36535,
    "country": "US",
    "latitude": 30.382508,
    "longitude": -87.686381,
    "Coordinate": "30.382508, -87.686381"
  },
  {
    "state": "AL",
    "name": "Montgomery Supercenter",
    "street_address": "3801 Eastern Blvd",
    "city": "Montgomery",
    "zip_code": 36116,
    "country": "US",
    "latitude": 32.325856,
    "longitude": -86.23242,
    "Coordinate": "32.325856, -86.23242"
  },
  {
    "state": "AL",
    "name": "Daphne Supercenter",
    "street_address": "27520 Us Highway 98",
    "city": "Daphne",
    "zip_code": 36526,
    "country": "US",
    "latitude": 30.6250365,
    "longitude": -87.9046017,
    "Coordinate": "30.6250365, -87.9046017"
  },
  {
    "state": "AL",
    "name": "Montgomery Supercenter",
    "street_address": "6495 Atlanta Hwy",
    "city": "Montgomery",
    "zip_code": 36117,
    "country": "US",
    "latitude": 32.385046,
    "longitude": -86.184915,
    "Coordinate": "32.385046, -86.184915"
  },
  {
    "state": "AL",
    "name": "Mobile Supercenter",
    "street_address": "101 E I65 Service Rd S",
    "city": "Mobile",
    "zip_code": 36606,
    "country": "US",
    "latitude": 30.684378,
    "longitude": -88.12497,
    "Coordinate": "30.684378, -88.12497"
  },
  {
    "state": "AL",
    "name": "Fayette Supercenter",
    "street_address": "3186 Highway 171 N",
    "city": "Fayette",
    "zip_code": 35555,
    "country": "US",
    "latitude": 33.731681,
    "longitude": -87.808643,
    "Coordinate": "33.731681, -87.808643"
  },
  {
    "state": "AL",
    "name": "Tallassee Supercenter",
    "street_address": "2190 Gilmer Avenue",
    "city": "Tallassee",
    "zip_code": 36078,
    "country": "US",
    "latitude": 32.5517837,
    "longitude": -85.9167142,
    "Coordinate": "32.5517837, -85.9167142"
  },
  {
    "state": "AL",
    "name": "Geneva Store",
    "street_address": "1608 W Magnolia Ave",
    "city": "Geneva",
    "zip_code": 36340,
    "country": "US",
    "latitude": 31.051472,
    "longitude": -85.899404,
    "Coordinate": "31.051472, -85.899404"
  },
  {
    "state": "AL",
    "name": "Andalusia Supercenter",
    "street_address": "1991 M. L. King Jr.",
    "city": "Andalusia",
    "zip_code": 36420,
    "country": "US",
    "latitude": 31.32176,
    "longitude": -86.444966,
    "Coordinate": "31.32176, -86.444966"
  },
  {
    "state": "AL",
    "name": "Wetumpka Supercenter",
    "street_address": "4538 Us Highway 231",
    "city": "Wetumpka",
    "zip_code": 36092,
    "country": "US",
    "latitude": 32.507156,
    "longitude": -86.211951,
    "Coordinate": "32.507156, -86.211951"
  },
  {
    "state": "AL",
    "name": "Hamilton Supercenter",
    "street_address": "1706 Military St S",
    "city": "Hamilton",
    "zip_code": 35570,
    "country": "US",
    "latitude": 34.1196525,
    "longitude": -87.9923238,
    "Coordinate": "34.1196525, -87.9923238"
  },
  {
    "state": "AL",
    "name": "Hartselle Supercenter",
    "street_address": "1201 Highway 31 Nw",
    "city": "Hartselle",
    "zip_code": 35640,
    "country": "US",
    "latitude": 34.45249,
    "longitude": -86.948782,
    "Coordinate": "34.45249, -86.948782"
  },
  {
    "state": "AL",
    "name": "Birmingham Supercenter",
    "street_address": "2473 Hackworth Rd",
    "city": "Birmingham",
    "zip_code": 35214,
    "country": "US",
    "latitude": 33.579201,
    "longitude": -86.9243089,
    "Coordinate": "33.579201, -86.9243089"
  },
  {
    "state": "AL",
    "name": "Thomasville Supercenter",
    "street_address": "34301 Highway 43",
    "city": "Thomasville",
    "zip_code": 36784,
    "country": "US",
    "latitude": 31.939592,
    "longitude": -87.739498,
    "Coordinate": "31.939592, -87.739498"
  },
  {
    "state": "AL",
    "name": "Gardendale Supercenter",
    "street_address": "890 Odum Rd",
    "city": "Gardendale",
    "zip_code": 35071,
    "country": "US",
    "latitude": 33.647006,
    "longitude": -86.822779,
    "Coordinate": "33.647006, -86.822779"
  },
  {
    "state": "AL",
    "name": "Saraland Supercenter",
    "street_address": "1095 Industrial Pkwy",
    "city": "Saraland",
    "zip_code": 36571,
    "country": "US",
    "latitude": 30.799419,
    "longitude": -88.096979,
    "Coordinate": "30.799419, -88.096979"
  },
  {
    "state": "AL",
    "name": "Hoover Supercenter",
    "street_address": "2780 John Hawkins Pkwy",
    "city": "Hoover",
    "zip_code": 35244,
    "country": "US",
    "latitude": 33.361773,
    "longitude": -86.824653,
    "Coordinate": "33.361773, -86.824653"
  },
  {
    "state": "AL",
    "name": "Phenix City Supercenter",
    "street_address": "3700 Hwy 280/431 N.",
    "city": "Phenix City",
    "zip_code": 36867,
    "country": "US",
    "latitude": 32.501376,
    "longitude": -85.043413,
    "Coordinate": "32.501376, -85.043413"
  },
  {
    "state": "AL",
    "name": "Greenville Supercenter",
    "street_address": "501 Willow Ln",
    "city": "Greenville",
    "zip_code": 36037,
    "country": "US",
    "latitude": 31.849507,
    "longitude": -86.647223,
    "Coordinate": "31.849507, -86.647223"
  },
  {
    "state": "AL",
    "name": "Homewood Supercenter",
    "street_address": "209 Lakeshore Pkwy",
    "city": "Homewood",
    "zip_code": 35209,
    "country": "US",
    "latitude": 33.447061,
    "longitude": -86.821007,
    "Coordinate": "33.447061, -86.821007"
  },
  {
    "state": "AL",
    "name": "Monroeville Supercenter",
    "street_address": "3371 S Alabama Ave",
    "city": "Monroeville",
    "zip_code": 36460,
    "country": "US",
    "latitude": 31.480615,
    "longitude": -87.328286,
    "Coordinate": "31.480615, -87.328286"
  },
  {
    "state": "AL",
    "name": "Brewton Supercenter",
    "street_address": "2578 Douglas Ave",
    "city": "Brewton",
    "zip_code": 36426,
    "country": "US",
    "latitude": 31.148441,
    "longitude": -87.063735,
    "Coordinate": "31.148441, -87.063735"
  },
  {
    "state": "AL",
    "name": "Eufaula Supercenter",
    "street_address": "3176 S Eufaula Ave",
    "city": "Eufaula",
    "zip_code": 36027,
    "country": "US",
    "latitude": 31.843586,
    "longitude": -85.171043,
    "Coordinate": "31.843586, -85.171043"
  },
  {
    "state": "AL",
    "name": "Birmingham Supercenter",
    "street_address": "1600 Montclair Rd",
    "city": "Birmingham",
    "zip_code": 35210,
    "country": "US",
    "latitude": 33.528969,
    "longitude": -86.720194,
    "Coordinate": "33.528969, -86.720194"
  },
  {
    "state": "AL",
    "name": "Birmingham Supercenter",
    "street_address": "5335 Highway 280",
    "city": "Birmingham",
    "zip_code": 35242,
    "country": "US",
    "latitude": 33.421996,
    "longitude": -86.67595,
    "Coordinate": "33.421996, -86.67595"
  },
  {
    "state": "AL",
    "name": "Northport Supercenter",
    "street_address": "5710 Mcfarland Blvd",
    "city": "Northport",
    "zip_code": 35476,
    "country": "US",
    "latitude": 33.236372,
    "longitude": -87.615269,
    "Coordinate": "33.236372, -87.615269"
  },
  {
    "state": "AL",
    "name": "Decatur Neighborhood Market",
    "street_address": "1203 6th Ave Se",
    "city": "Decatur",
    "zip_code": 35601,
    "country": "US",
    "latitude": 34.588891,
    "longitude": -86.981859,
    "Coordinate": "34.588891, -86.981859"
  },
  {
    "state": "AL",
    "name": "Dothan Supercenter",
    "street_address": "3300 S Oates St",
    "city": "Dothan",
    "zip_code": 36301,
    "country": "US",
    "latitude": 31.178814,
    "longitude": -85.404472,
    "Coordinate": "31.178814, -85.404472"
  },
  {
    "state": "AL",
    "name": "Madison Supercenter",
    "street_address": "8650 Madison Blvd",
    "city": "Madison",
    "zip_code": 35758,
    "country": "US",
    "latitude": 34.683846,
    "longitude": -86.741089,
    "Coordinate": "34.683846, -86.741089"
  },
  {
    "state": "AL",
    "name": "Birmingham Supercenter",
    "street_address": "5919 Trussville Crossings Pkwy",
    "city": "Birmingham",
    "zip_code": 35235,
    "country": "US",
    "latitude": 33.638953,
    "longitude": -86.629165,
    "Coordinate": "33.638953, -86.629165"
  },
  {
    "state": "AL",
    "name": "Sumiton Supercenter",
    "street_address": "690 Highway 78",
    "city": "Sumiton",
    "zip_code": 35148,
    "country": "US",
    "latitude": 33.745493,
    "longitude": -87.041799,
    "Coordinate": "33.745493, -87.041799"
  },
  {
    "state": "AL",
    "name": "Bay Minette Supercenter",
    "street_address": "701 Mcmeans Ave",
    "city": "Bay Minette",
    "zip_code": 36507,
    "country": "US",
    "latitude": 30.886011,
    "longitude": -87.790076,
    "Coordinate": "30.886011, -87.790076"
  },
  {
    "state": "AL",
    "name": "Gulf Shores Supercenter",
    "street_address": "170 E Fort Morgan Rd",
    "city": "Gulf Shores",
    "zip_code": 36542,
    "country": "US",
    "latitude": 30.267427,
    "longitude": -87.686198,
    "Coordinate": "30.267427, -87.686198"
  },
  {
    "state": "AL",
    "name": "Jackson Supercenter",
    "street_address": "4206 N College Ave",
    "city": "Jackson",
    "zip_code": 36545,
    "country": "US",
    "latitude": 31.559638,
    "longitude": -87.875509,
    "Coordinate": "31.559638, -87.875509"
  },
  {
    "state": "AL",
    "name": "Huntsville Neighborhood Market",
    "street_address": "4226 Oakwood Ave Nw",
    "city": "Huntsville",
    "zip_code": 35810,
    "country": "US",
    "latitude": 34.750358,
    "longitude": -86.633691,
    "Coordinate": "34.750358, -86.633691"
  },
  {
    "state": "AL",
    "name": "Hoover Neighborhood Market",
    "street_address": "3320 Lorna Rd",
    "city": "Hoover",
    "zip_code": 35216,
    "country": "US",
    "latitude": 33.393005,
    "longitude": -86.799345,
    "Coordinate": "33.393005, -86.799345"
  },
  {
    "state": "AL",
    "name": "Calera Supercenter",
    "street_address": "5100 Highway 31",
    "city": "Calera",
    "zip_code": 35040,
    "country": "US",
    "latitude": 33.146252,
    "longitude": -86.751885,
    "Coordinate": "33.146252, -86.751885"
  },
  {
    "state": "AL",
    "name": "Springville Supercenter",
    "street_address": "160 Springville Station Blvd",
    "city": "Springville",
    "zip_code": 35146,
    "country": "US",
    "latitude": 33.7797315,
    "longitude": -86.4329463,
    "Coordinate": "33.7797315, -86.4329463"
  },
  {
    "state": "AL",
    "name": "Birmingham Neighborhood Market",
    "street_address": "2653 Valleydale Road",
    "city": "Birmingham",
    "zip_code": 35244,
    "country": "US",
    "latitude": 33.382356,
    "longitude": -86.739176,
    "Coordinate": "33.382356, -86.739176"
  },
  {
    "state": "AL",
    "name": "Florence Neighborhood Market",
    "street_address": "1410 Florence Blvd",
    "city": "Florence",
    "zip_code": 35630,
    "country": "US",
    "latitude": 34.817941,
    "longitude": -87.656437,
    "Coordinate": "34.817941, -87.656437"
  },
  {
    "state": "AL",
    "name": "Helena Neighborhood Market",
    "street_address": "335 Helena Marketplace",
    "city": "Helena",
    "zip_code": 35080,
    "country": "US",
    "latitude": 33.279523,
    "longitude": -86.850848,
    "Coordinate": "33.279523, -86.850848"
  },
  {
    "state": "AL",
    "name": "Florence Supercenter",
    "street_address": "2701 Cloverdale Road",
    "city": "Florence",
    "zip_code": 35633,
    "country": "US",
    "latitude": 34.8430048,
    "longitude": -87.6918276,
    "Coordinate": "34.8430048, -87.6918276"
  },
  {
    "state": "AL",
    "name": "Mobile Neighborhood Market",
    "street_address": "1300 North University",
    "city": "Mobile",
    "zip_code": 36618,
    "country": "US",
    "latitude": 30.7171309,
    "longitude": -88.1633413,
    "Coordinate": "30.7171309, -88.1633413"
  },
  {
    "state": "AL",
    "name": "Millbrook Supercenter",
    "street_address": "145 Kelley Blvd",
    "city": "Millbrook",
    "zip_code": 36054,
    "country": "US",
    "latitude": 32.493877,
    "longitude": -86.398425,
    "Coordinate": "32.493877, -86.398425"
  },
  {
    "state": "AL",
    "name": "Chelsea Supercenter",
    "street_address": "16077 Highway 280",
    "city": "Chelsea",
    "zip_code": 35043,
    "country": "US",
    "latitude": 33.347786,
    "longitude": -86.619238,
    "Coordinate": "33.347786, -86.619238"
  },
  {
    "state": "AL",
    "name": "Fairhope Supercenter",
    "street_address": "10040 County Road 48",
    "city": "Fairhope",
    "zip_code": 36532,
    "country": "US",
    "latitude": 30.522315,
    "longitude": -87.848815,
    "Coordinate": "30.522315, -87.848815"
  },
  {
    "state": "AL",
    "name": "Montgomery Supercenter",
    "street_address": "10710 Chantilly Pkwy",
    "city": "Montgomery",
    "zip_code": 36117,
    "country": "US",
    "latitude": 32.354805,
    "longitude": -86.135007,
    "Coordinate": "32.354805, -86.135007"
  },
  {
    "state": "AL",
    "name": "Hueytown Supercenter",
    "street_address": "1007 Red Farmer Dr",
    "city": "Hueytown",
    "zip_code": 35023,
    "country": "US",
    "latitude": 33.460574,
    "longitude": -86.96832,
    "Coordinate": "33.460574, -86.96832"
  },
  {
    "state": "AL",
    "name": "Birmingham Neighborhood Market",
    "street_address": "312 Palisades Blvd",
    "city": "Birmingham",
    "zip_code": 35209,
    "country": "US",
    "latitude": 33.46784,
    "longitude": -86.821602,
    "Coordinate": "33.46784, -86.821602"
  },
  {
    "state": "AL",
    "name": "Mobile Supercenter",
    "street_address": "2500 Dawes Rd",
    "city": "Mobile",
    "zip_code": 36695,
    "country": "US",
    "latitude": 30.639038,
    "longitude": -88.246334,
    "Coordinate": "30.639038, -88.246334"
  },
  {
    "state": "AL",
    "name": "Vestavia Hills Neighborhood Market",
    "street_address": "1300 Montgomery Hwy",
    "city": "Vestavia Hills",
    "zip_code": 35216,
    "country": "US",
    "latitude": 33.428559,
    "longitude": -86.791833,
    "Coordinate": "33.428559, -86.791833"
  },
  {
    "state": "AL",
    "name": "Mobile Neighborhood Market",
    "street_address": "6575 Airport Blvd",
    "city": "Mobile",
    "zip_code": 36608,
    "country": "US",
    "latitude": 30.6780881,
    "longitude": -88.1948625,
    "Coordinate": "30.6780881, -88.1948625"
  },
  {
    "state": "AL",
    "name": "Mobile Neighborhood Market",
    "street_address": "6350 Cottage Hill Rd",
    "city": "Mobile",
    "zip_code": 36609,
    "country": "US",
    "latitude": 30.641564,
    "longitude": -88.189278,
    "Coordinate": "30.641564, -88.189278"
  },
  {
    "state": "AL",
    "name": "Auburn Neighborhood Market",
    "street_address": "1810 Shug Jordan Parkway",
    "city": "Auburn",
    "zip_code": 36832,
    "country": "US",
    "latitude": 32.630388,
    "longitude": -85.495491,
    "Coordinate": "32.630388, -85.495491"
  },
  {
    "state": "AL",
    "name": "Montgomery Neighborhood Market",
    "street_address": "1600 Federal Drive",
    "city": "Montgomery",
    "zip_code": 36109,
    "country": "US",
    "latitude": 32.402505,
    "longitude": -86.266962,
    "Coordinate": "32.402505, -86.266962"
  },
  {
    "state": "AL",
    "name": "Montgomery Neighborhood Market",
    "street_address": "8035 Vaughn Road",
    "city": "Montgomery",
    "zip_code": 36116,
    "country": "US",
    "latitude": 32.340452,
    "longitude": -86.175231,
    "Coordinate": "32.340452, -86.175231"
  },
  {
    "state": "AL",
    "name": "Alabaster Neighborhood Market",
    "street_address": "9085 Hwy 119",
    "city": "Alabaster",
    "zip_code": 35007,
    "country": "US",
    "latitude": 33.212574,
    "longitude": -86.828967,
    "Coordinate": "33.212574, -86.828967"
  },
  {
    "state": "AL",
    "name": "Auburn Neighborhood Market",
    "street_address": "2047 E University Dr",
    "city": "Auburn",
    "zip_code": 36830,
    "country": "US",
    "latitude": 32.624746,
    "longitude": -85.450252,
    "Coordinate": "32.624746, -85.450252"
  },
  {
    "state": "AL",
    "name": "Mobile Neighborhood Market",
    "street_address": "1970 S University Blvd",
    "city": "Mobile",
    "zip_code": 36609,
    "country": "US",
    "latitude": 30.649576,
    "longitude": -88.162311,
    "Coordinate": "30.649576, -88.162311"
  },
  {
    "state": "AL",
    "name": "Birmingham Neighborhood Market",
    "street_address": "1916 Center Point Pkwy",
    "city": "Birmingham",
    "zip_code": 35215,
    "country": "US",
    "latitude": 33.637368,
    "longitude": -86.684495,
    "Coordinate": "33.637368, -86.684495"
  },
  {
    "state": "AL",
    "name": "Pell City Supercenter",
    "street_address": "165 Vaughan Ln",
    "city": "Pell City",
    "zip_code": 35125,
    "country": "US",
    "latitude": 33.6094159,
    "longitude": -86.277122,
    "Coordinate": "33.6094159, -86.277122"
  },
  {
    "state": "AL",
    "name": "Centre Supercenter",
    "street_address": "1950 W Main St",
    "city": "Centre",
    "zip_code": 35960,
    "country": "US",
    "latitude": 34.162885,
    "longitude": -85.712618,
    "Coordinate": "34.162885, -85.712618"
  },
  {
    "state": "AL",
    "name": "Semmes Supercenter",
    "street_address": "7855 Moffett Rd",
    "city": "Semmes",
    "zip_code": 36575,
    "country": "US",
    "latitude": 30.761862,
    "longitude": -88.229473,
    "Coordinate": "30.761862, -88.229473"
  },
  {
    "state": "AL",
    "name": "Owens Cross Roads Supercenter",
    "street_address": "330 Sutton Rd Se",
    "city": "Owens Cross Roads",
    "zip_code": 35763,
    "country": "US",
    "latitude": 34.657289,
    "longitude": -86.485715,
    "Coordinate": "34.657289, -86.485715"
  },
  {
    "state": "AL",
    "name": "Northport Neighborhood Market",
    "street_address": "1660 Mcfarland Boulevard",
    "city": "Northport",
    "zip_code": 35476,
    "country": "US",
    "latitude": 33.239706,
    "longitude": -87.573611,
    "Coordinate": "33.239706, -87.573611"
  },
  {
    "state": "AL",
    "name": "Pelham Supercenter",
    "street_address": "2181 Pelham Pkwy",
    "city": "Pelham",
    "zip_code": 35124,
    "country": "US",
    "latitude": 33.340851,
    "longitude": -86.791181,
    "Coordinate": "33.340851, -86.791181"
  },
  {
    "state": "AL",
    "name": "Tuscaloosa Neighborhood Market",
    "street_address": "4201 Hargrove Rd E",
    "city": "Tuscaloosa",
    "zip_code": 35405,
    "country": "US",
    "latitude": 33.169989,
    "longitude": -87.482461,
    "Coordinate": "33.169989, -87.482461"
  },
  {
    "state": "AL",
    "name": "Montgomery Supercenter",
    "street_address": "851 Ann St",
    "city": "Montgomery",
    "zip_code": 36107,
    "country": "US",
    "latitude": 32.370783,
    "longitude": -86.268184,
    "Coordinate": "32.370783, -86.268184"
  },
  {
    "state": "AL",
    "name": "Orange Beach Neighborhood Market",
    "street_address": "25241 Perdido Beach Blvd Ste W",
    "city": "Orange Beach",
    "zip_code": 36561,
    "country": "US",
    "latitude": 30.269264,
    "longitude": -87.594308,
    "Coordinate": "30.269264, -87.594308"
  },
  {
    "state": "AL",
    "name": "Madison Supercenter",
    "street_address": "8580 Hwy 72 W",
    "city": "Madison",
    "zip_code": 35758,
    "country": "US",
    "latitude": 34.751165,
    "longitude": -86.773547,
    "Coordinate": "34.751165, -86.773547"
  },
  {
    "state": "AL",
    "name": "Huntsville Neighborhood Market",
    "street_address": "9020 Bailey Cove Rd Se",
    "city": "Huntsville",
    "zip_code": 35802,
    "country": "US",
    "latitude": 34.647258,
    "longitude": -86.541605,
    "Coordinate": "34.647258, -86.541605"
  },
  {
    "state": "AL",
    "name": "Mobile Neighborhood Market",
    "street_address": "2570 Government Blvd",
    "city": "Mobile",
    "zip_code": 36606,
    "country": "US",
    "latitude": 30.669712,
    "longitude": -88.105083,
    "Coordinate": "30.669712, -88.105083"
  },
  {
    "state": "AL",
    "name": "Theodore Neighborhood Market",
    "street_address": "7320 Theodore Dawes Rd",
    "city": "Theodore",
    "zip_code": 36582,
    "country": "US",
    "latitude": 30.563659,
    "longitude": -88.213981,
    "Coordinate": "30.563659, -88.213981"
  },
  {
    "state": "AL",
    "name": "Madison Pickup only",
    "street_address": "7520 U.s. Highway 72 West",
    "city": "Madison",
    "zip_code": 35758,
    "country": "US",
    "latitude": 34.756417,
    "longitude": -86.730166,
    "Coordinate": "34.756417, -86.730166"
  },
  {
    "state": "AL",
    "name": "Dothan Neighborhood Market",
    "street_address": "3871 West Main Street",
    "city": "Dothan",
    "zip_code": 36305,
    "country": "US",
    "latitude": 31.231526,
    "longitude": -85.450493,
    "Coordinate": "31.231526, -85.450493"
  },
  {
    "state": "AL",
    "name": "Phenix City Neighborhood Market",
    "street_address": "3864 Us Highway 80 W",
    "city": "Phenix City",
    "zip_code": 36870,
    "country": "US",
    "latitude": 32.46981,
    "longitude": -85.083086,
    "Coordinate": "32.46981, -85.083086"
  },
  {
    "state": "AL",
    "name": "Huntsville Neighborhood Market",
    "street_address": "2305 Jordan Ln Sw",
    "city": "Huntsville",
    "zip_code": 35805,
    "country": "US",
    "latitude": 34.713602,
    "longitude": -86.624894,
    "Coordinate": "34.713602, -86.624894"
  },
  {
    "state": "AL",
    "name": "Robertsdale Supercenter",
    "street_address": "21141 State Hwy 59",
    "city": "Robertsdale",
    "zip_code": 36567,
    "country": "US",
    "latitude": 30.532086,
    "longitude": -87.711089,
    "Coordinate": "30.532086, -87.711089"
  },
  {
    "state": "AL",
    "name": "Hazel Green Supercenter",
    "street_address": "14595 Hwy 231-431 N",
    "city": "Hazel Green",
    "zip_code": 35750,
    "country": "US",
    "latitude": 34.945898,
    "longitude": -86.574707,
    "Coordinate": "34.945898, -86.574707"
  },
  {
    "state": "AL",
    "name": "Atmore Supercenter",
    "street_address": "911 N Main Street",
    "city": "Atmore",
    "zip_code": 36502,
    "country": "US",
    "latitude": 31.0379679,
    "longitude": -87.4951729,
    "Coordinate": "31.0379679, -87.4951729"
  },
  {
    "state": "AL",
    "name": "Huntsville Pharmacy",
    "street_address": "1 Cotton Valley Drive Nw",
    "city": "Huntsville",
    "zip_code": 35810,
    "country": "US",
    "latitude": 34.765195,
    "longitude": -86.592346,
    "Coordinate": "34.765195, -86.592346"
  },
  {
    "state": "AL",
    "name": "Cullman Supercenter",
    "street_address": "5601 Highway 157",
    "city": "Cullman",
    "zip_code": 35058,
    "country": "US",
    "latitude": 34.204319,
    "longitude": -86.869567,
    "Coordinate": "34.204319, -86.869567"
  },
  {
    "state": "AL",
    "name": "Huntsville Supercenter",
    "street_address": "2165 Winchester Rd",
    "city": "Huntsville",
    "zip_code": 35811,
    "country": "US",
    "latitude": 34.820128,
    "longitude": -86.49261,
    "Coordinate": "34.820128, -86.49261"
  },
  {
    "state": "AL",
    "name": "Madison Neighborhood Market",
    "street_address": "7140 Wall Triana Highway",
    "city": "Madison",
    "zip_code": 35757,
    "country": "US",
    "latitude": 34.793292,
    "longitude": -86.750837,
    "Coordinate": "34.793292, -86.750837"
  },
  {
    "state": "AR",
    "name": "Conway Supercenter",
    "street_address": "1155 Hwy 65 North",
    "city": "Conway",
    "zip_code": 72032,
    "country": "US",
    "latitude": 35.10866,
    "longitude": -92.436905,
    "Coordinate": "35.10866, -92.436905"
  },
  {
    "state": "AR",
    "name": "Mountain Home Supercenter",
    "street_address": "65 Wal Mart Dr",
    "city": "Mountain Home",
    "zip_code": 72653,
    "country": "US",
    "latitude": 36.3549565,
    "longitude": -92.3410256,
    "Coordinate": "36.3549565, -92.3410256"
  },
  {
    "state": "AR",
    "name": "Rogers Supercenter",
    "street_address": "2110 W Walnut St",
    "city": "Rogers",
    "zip_code": 72756,
    "country": "US",
    "latitude": 36.3313,
    "longitude": -94.149024,
    "Coordinate": "36.3313, -94.149024"
  },
  {
    "state": "AR",
    "name": "Siloam Springs Supercenter",
    "street_address": "2901 Highway 412 E",
    "city": "Siloam Springs",
    "zip_code": 72761,
    "country": "US",
    "latitude": 36.183467,
    "longitude": -94.512608,
    "Coordinate": "36.183467, -94.512608"
  },
  {
    "state": "AR",
    "name": "Sherwood Supercenter",
    "street_address": "9053 Highway 107",
    "city": "Sherwood",
    "zip_code": 72120,
    "country": "US",
    "latitude": 34.838767,
    "longitude": -92.236838,
    "Coordinate": "34.838767, -92.236838"
  },
  {
    "state": "AR",
    "name": "Harrison Supercenter",
    "street_address": "161 N Walmart Dr",
    "city": "Harrison",
    "zip_code": 72601,
    "country": "US",
    "latitude": 36.269042,
    "longitude": -93.139074,
    "Coordinate": "36.269042, -93.139074"
  },
  {
    "state": "AR",
    "name": "Van Buren Supercenter",
    "street_address": "2214 Fayetteville Rd",
    "city": "Van Buren",
    "zip_code": 72956,
    "country": "US",
    "latitude": 35.469113,
    "longitude": -94.353427,
    "Coordinate": "35.469113, -94.353427"
  },
  {
    "state": "AR",
    "name": "Newport Supercenter",
    "street_address": "1211 Highway 367 N",
    "city": "Newport",
    "zip_code": 72112,
    "country": "US",
    "latitude": 35.618058,
    "longitude": -91.254954,
    "Coordinate": "35.618058, -91.254954"
  },
  {
    "state": "AR",
    "name": "Morrilton Supercenter",
    "street_address": "1621 North Business 9",
    "city": "Morrilton",
    "zip_code": 72110,
    "country": "US",
    "latitude": 35.168795,
    "longitude": -92.726727,
    "Coordinate": "35.168795, -92.726727"
  },
  {
    "state": "AR",
    "name": "Jacksonville Supercenter",
    "street_address": "2000 John Harden Dr",
    "city": "Jacksonville",
    "zip_code": 72076,
    "country": "US",
    "latitude": 34.885098,
    "longitude": -92.11255,
    "Coordinate": "34.885098, -92.11255"
  },
  {
    "state": "AR",
    "name": "Nashville Supercenter",
    "street_address": "1710 S 4th St",
    "city": "Nashville",
    "zip_code": 71852,
    "country": "US",
    "latitude": 33.925385,
    "longitude": -93.857443,
    "Coordinate": "33.925385, -93.857443"
  },
  {
    "state": "AR",
    "name": "Paragould Supercenter",
    "street_address": "2802 W Kingshighway",
    "city": "Paragould",
    "zip_code": 72450,
    "country": "US",
    "latitude": 36.057305,
    "longitude": -90.52294,
    "Coordinate": "36.057305, -90.52294"
  },
  {
    "state": "AR",
    "name": "Jonesboro Supercenter",
    "street_address": "1815 E Highland Dr",
    "city": "Jonesboro",
    "zip_code": 72401,
    "country": "US",
    "latitude": 35.81895,
    "longitude": -90.685267,
    "Coordinate": "35.81895, -90.685267"
  },
  {
    "state": "AR",
    "name": "Hot Springs Supercenter",
    "street_address": "1601 Albert Pike Rd",
    "city": "Hot Springs",
    "zip_code": 71913,
    "country": "US",
    "latitude": 34.490929,
    "longitude": -93.089251,
    "Coordinate": "34.490929, -93.089251"
  },
  {
    "state": "AR",
    "name": "Springdale Supercenter",
    "street_address": "2004 S Pleasant St",
    "city": "Springdale",
    "zip_code": 72764,
    "country": "US",
    "latitude": 36.166247,
    "longitude": -94.146954,
    "Coordinate": "36.166247, -94.146954"
  },
  {
    "state": "AR",
    "name": "Russellville Supercenter",
    "street_address": "2409 E Main St",
    "city": "Russellville",
    "zip_code": 72802,
    "country": "US",
    "latitude": 35.280505,
    "longitude": -93.105157,
    "Coordinate": "35.280505, -93.105157"
  },
  {
    "state": "AR",
    "name": "Booneville Supercenter",
    "street_address": "1400 East Main St",
    "city": "Booneville",
    "zip_code": 72927,
    "country": "US",
    "latitude": 35.1433678,
    "longitude": -93.9018368,
    "Coordinate": "35.1433678, -93.9018368"
  },
  {
    "state": "AR",
    "name": "Walnut Ridge Store",
    "street_address": "1600 W Main St",
    "city": "Walnut Ridge",
    "zip_code": 72476,
    "country": "US",
    "latitude": 36.07663,
    "longitude": -90.97439,
    "Coordinate": "36.07663, -90.97439"
  },
  {
    "state": "AR",
    "name": "Blytheville Supercenter",
    "street_address": "3700 E Highway 18",
    "city": "Blytheville",
    "zip_code": 72315,
    "country": "US",
    "latitude": 35.931083,
    "longitude": -89.872175,
    "Coordinate": "35.931083, -89.872175"
  },
  {
    "state": "AR",
    "name": "Wynne Supercenter",
    "street_address": "800 Highway 64 E",
    "city": "Wynne",
    "zip_code": 72396,
    "country": "US",
    "latitude": 35.253427,
    "longitude": -90.777454,
    "Coordinate": "35.253427, -90.777454"
  },
  {
    "state": "AR",
    "name": "Clarksville Supercenter",
    "street_address": "230 Market St.",
    "city": "Clarksville",
    "zip_code": 72830,
    "country": "US",
    "latitude": 35.4486832,
    "longitude": -93.4604664,
    "Coordinate": "35.4486832, -93.4604664"
  },
  {
    "state": "AR",
    "name": "Mena Supercenter",
    "street_address": "600 Highway 71 N",
    "city": "Mena",
    "zip_code": 71953,
    "country": "US",
    "latitude": 34.588589,
    "longitude": -94.225872,
    "Coordinate": "34.588589, -94.225872"
  },
  {
    "state": "AR",
    "name": "Osceola Supercenter",
    "street_address": "2720 W Keiser Ave",
    "city": "Osceola",
    "zip_code": 72370,
    "country": "US",
    "latitude": 35.6999918,
    "longitude": -90.0126791,
    "Coordinate": "35.6999918, -90.0126791"
  },
  {
    "state": "AR",
    "name": "West Memphis Supercenter",
    "street_address": "798 W Service Rd",
    "city": "West Memphis",
    "zip_code": 72301,
    "country": "US",
    "latitude": 35.165456,
    "longitude": -90.20001,
    "Coordinate": "35.165456, -90.20001"
  },
  {
    "state": "AR",
    "name": "Pocahontas Supercenter",
    "street_address": "1415 Highway 67 S",
    "city": "Pocahontas",
    "zip_code": 72455,
    "country": "US",
    "latitude": 36.248722,
    "longitude": -90.963337,
    "Coordinate": "36.248722, -90.963337"
  },
  {
    "state": "AR",
    "name": "Berryville Supercenter",
    "street_address": "1000 W Trimble Ave",
    "city": "Berryville",
    "zip_code": 72616,
    "country": "US",
    "latitude": 36.376273,
    "longitude": -93.5870153,
    "Coordinate": "36.376273, -93.5870153"
  },
  {
    "state": "AR",
    "name": "Magnolia Supercenter",
    "street_address": "60 Highway 79 N",
    "city": "Magnolia",
    "zip_code": 71753,
    "country": "US",
    "latitude": 33.276653,
    "longitude": -93.212017,
    "Coordinate": "33.276653, -93.212017"
  },
  {
    "state": "AR",
    "name": "Benton Supercenter",
    "street_address": "17309 Interstate 30 S",
    "city": "Benton",
    "zip_code": 72015,
    "country": "US",
    "latitude": 34.577533,
    "longitude": -92.580065,
    "Coordinate": "34.577533, -92.580065"
  },
  {
    "state": "AR",
    "name": "Forrest City Supercenter",
    "street_address": "205 Deadrick Rd",
    "city": "Forrest City",
    "zip_code": 72335,
    "country": "US",
    "latitude": 35.028039,
    "longitude": -90.793582,
    "Coordinate": "35.028039, -90.793582"
  },
  {
    "state": "AR",
    "name": "Bentonville Supercenter",
    "street_address": "406 S Walton Blvd",
    "city": "Bentonville",
    "zip_code": 72712,
    "country": "US",
    "latitude": 36.368151,
    "longitude": -94.224959,
    "Coordinate": "36.368151, -94.224959"
  },
  {
    "state": "AR",
    "name": "Stuttgart Supercenter",
    "street_address": "406 E 22nd St",
    "city": "Stuttgart",
    "zip_code": 72160,
    "country": "US",
    "latitude": 34.477048,
    "longitude": -91.549074,
    "Coordinate": "34.477048, -91.549074"
  },
  {
    "state": "AR",
    "name": "Batesville Supercenter",
    "street_address": "3150 Harrison St",
    "city": "Batesville",
    "zip_code": 72501,
    "country": "US",
    "latitude": 35.762696,
    "longitude": -91.614278,
    "Coordinate": "35.762696, -91.614278"
  },
  {
    "state": "AR",
    "name": "Little Rock Supercenter",
    "street_address": "8801 Baseline Rd",
    "city": "Little Rock",
    "zip_code": 72209,
    "country": "US",
    "latitude": 34.667147,
    "longitude": -92.377089,
    "Coordinate": "34.667147, -92.377089"
  },
  {
    "state": "AR",
    "name": "Malvern Supercenter",
    "street_address": "1910 Martin Luther King Blvd",
    "city": "Malvern",
    "zip_code": 72104,
    "country": "US",
    "latitude": 34.3907358,
    "longitude": -92.8327356,
    "Coordinate": "34.3907358, -92.8327356"
  },
  {
    "state": "AR",
    "name": "Jonesboro Supercenter",
    "street_address": "1911 W Parker Rd",
    "city": "Jonesboro",
    "zip_code": 72404,
    "country": "US",
    "latitude": 35.815748,
    "longitude": -90.734426,
    "Coordinate": "35.815748, -90.734426"
  },
  {
    "state": "AR",
    "name": "Fort Smith Supercenter",
    "street_address": "2425 S Zero St",
    "city": "Fort Smith",
    "zip_code": 72901,
    "country": "US",
    "latitude": 35.329141,
    "longitude": -94.406562,
    "Coordinate": "35.329141, -94.406562"
  },
  {
    "state": "AR",
    "name": "Little Rock Supercenter",
    "street_address": "2700 S Shackleford Rd",
    "city": "Little Rock",
    "zip_code": 72205,
    "country": "US",
    "latitude": 34.72831,
    "longitude": -92.397677,
    "Coordinate": "34.72831, -92.397677"
  },
  {
    "state": "AR",
    "name": "Ashdown Supercenter",
    "street_address": "297 Hwy 32 By-pass E",
    "city": "Ashdown",
    "zip_code": 71822,
    "country": "US",
    "latitude": 33.657167,
    "longitude": -94.10924,
    "Coordinate": "33.657167, -94.10924"
  },
  {
    "state": "AR",
    "name": "Fort Smith Supercenter",
    "street_address": "8301 Rogers Ave",
    "city": "Fort Smith",
    "zip_code": 72903,
    "country": "US",
    "latitude": 35.350111,
    "longitude": -94.338702,
    "Coordinate": "35.350111, -94.338702"
  },
  {
    "state": "AR",
    "name": "Fayetteville Supercenter",
    "street_address": "2875 W Mrtn Luther K",
    "city": "Fayetteville",
    "zip_code": 72704,
    "country": "US",
    "latitude": 36.050008,
    "longitude": -94.201133,
    "Coordinate": "36.050008, -94.201133"
  },
  {
    "state": "AR",
    "name": "Searcy Supercenter",
    "street_address": "3509 E Race Ave",
    "city": "Searcy",
    "zip_code": 72143,
    "country": "US",
    "latitude": 35.247101,
    "longitude": -91.687166,
    "Coordinate": "35.247101, -91.687166"
  },
  {
    "state": "AR",
    "name": "Ash Flat Supercenter",
    "street_address": "219 Highway 412",
    "city": "Ash Flat",
    "zip_code": 72513,
    "country": "US",
    "latitude": 36.241189,
    "longitude": -91.596294,
    "Coordinate": "36.241189, -91.596294"
  },
  {
    "state": "AR",
    "name": "Crossett Supercenter",
    "street_address": "910 Unity Rd",
    "city": "Crossett",
    "zip_code": 71635,
    "country": "US",
    "latitude": 33.136229,
    "longitude": -91.941957,
    "Coordinate": "33.136229, -91.941957"
  },
  {
    "state": "AR",
    "name": "Lonoke Supercenter",
    "street_address": "322 Brownsville Loop",
    "city": "Lonoke",
    "zip_code": 72086,
    "country": "US",
    "latitude": 34.805224,
    "longitude": -91.894037,
    "Coordinate": "34.805224, -91.894037"
  },
  {
    "state": "AR",
    "name": "Camden Supercenter",
    "street_address": "950 California Ave Sw",
    "city": "Camden",
    "zip_code": 71701,
    "country": "US",
    "latitude": 33.567239,
    "longitude": -92.836856,
    "Coordinate": "33.567239, -92.836856"
  },
  {
    "state": "AR",
    "name": "Ozark Store",
    "street_address": "1516 N 18th St",
    "city": "Ozark",
    "zip_code": 72949,
    "country": "US",
    "latitude": 35.503711,
    "longitude": -93.84385,
    "Coordinate": "35.503711, -93.84385"
  },
  {
    "state": "AR",
    "name": "Trumann Supercenter",
    "street_address": "512 Industrial Park Dr",
    "city": "Trumann",
    "zip_code": 72472,
    "country": "US",
    "latitude": 35.681492,
    "longitude": -90.549868,
    "Coordinate": "35.681492, -90.549868"
  },
  {
    "state": "AR",
    "name": "Paris Store",
    "street_address": "1501 E Walnut St",
    "city": "Paris",
    "zip_code": 72855,
    "country": "US",
    "latitude": 35.293369,
    "longitude": -93.716195,
    "Coordinate": "35.293369, -93.716195"
  },
  {
    "state": "AR",
    "name": "Rogers Gas Station",
    "street_address": "4206 S Pleasant Crossing Blvd",
    "city": "Rogers",
    "zip_code": 72758,
    "country": "US",
    "latitude": 36.280919,
    "longitude": -94.151696,
    "Coordinate": "36.280919, -94.151696"
  },
  {
    "state": "AR",
    "name": "Hot Springs Supercenter",
    "street_address": "4019 Central Ave",
    "city": "Hot Springs",
    "zip_code": 71913,
    "country": "US",
    "latitude": 34.454531,
    "longitude": -93.060534,
    "Coordinate": "34.454531, -93.060534"
  },
  {
    "state": "AR",
    "name": "Heber Spgs Supercenter",
    "street_address": "1500 Hwy 25b",
    "city": "Heber Spgs",
    "zip_code": 72543,
    "country": "US",
    "latitude": 35.507388,
    "longitude": -92.032234,
    "Coordinate": "35.507388, -92.032234"
  },
  {
    "state": "AR",
    "name": "De Queen Supercenter",
    "street_address": "926 E Collin Raye Dr",
    "city": "De Queen",
    "zip_code": 71832,
    "country": "US",
    "latitude": 34.043471,
    "longitude": -94.319058,
    "Coordinate": "34.043471, -94.319058"
  },
  {
    "state": "AR",
    "name": "Mcgehee Store",
    "street_address": "Us 65 South",
    "city": "Mcgehee",
    "zip_code": 71654,
    "country": "US",
    "latitude": 33.604067,
    "longitude": -91.381208,
    "Coordinate": "33.604067, -91.381208"
  },
  {
    "state": "AR",
    "name": "Dardanelle Supercenter",
    "street_address": "1172 N. State Hwy 7",
    "city": "Dardanelle",
    "zip_code": 72834,
    "country": "US",
    "latitude": 35.2179,
    "longitude": -93.166461,
    "Coordinate": "35.2179, -93.166461"
  },
  {
    "state": "AR",
    "name": "Arkadelphia Supercenter",
    "street_address": "109 Wp Malone Dr",
    "city": "Arkadelphia",
    "zip_code": 71923,
    "country": "US",
    "latitude": 34.119797,
    "longitude": -93.096488,
    "Coordinate": "34.119797, -93.096488"
  },
  {
    "state": "AR",
    "name": "Sheridan Supercenter",
    "street_address": "1308 S Rock St",
    "city": "Sheridan",
    "zip_code": 72150,
    "country": "US",
    "latitude": 34.291348,
    "longitude": -92.397163,
    "Coordinate": "34.291348, -92.397163"
  },
  {
    "state": "AR",
    "name": "Fordyce Store",
    "street_address": "1123 Highway 79 167 Byp",
    "city": "Fordyce",
    "zip_code": 71742,
    "country": "US",
    "latitude": 33.820498,
    "longitude": -92.435566,
    "Coordinate": "33.820498, -92.435566"
  },
  {
    "state": "AR",
    "name": "Monticello Supercenter",
    "street_address": "427 Highway 425 N",
    "city": "Monticello",
    "zip_code": 71655,
    "country": "US",
    "latitude": 33.63588,
    "longitude": -91.80475,
    "Coordinate": "33.63588, -91.80475"
  },
  {
    "state": "AR",
    "name": "Alma Supercenter",
    "street_address": "367 W Cherry St",
    "city": "Alma",
    "zip_code": 72921,
    "country": "US",
    "latitude": 35.479083,
    "longitude": -94.22879,
    "Coordinate": "35.479083, -94.22879"
  },
  {
    "state": "AR",
    "name": "Fayetteville Supercenter",
    "street_address": "3919 No. Mall Ave",
    "city": "Fayetteville",
    "zip_code": 72703,
    "country": "US",
    "latitude": 36.122616,
    "longitude": -94.15276,
    "Coordinate": "36.122616, -94.15276"
  },
  {
    "state": "AR",
    "name": "Huntsville Supercenter",
    "street_address": "157 Gary Hatfield Way",
    "city": "Huntsville",
    "zip_code": 72740,
    "country": "US",
    "latitude": 36.1128042,
    "longitude": -93.7159682,
    "Coordinate": "36.1128042, -93.7159682"
  },
  {
    "state": "AR",
    "name": "Fort Smith Supercenter",
    "street_address": "2100 No. 62nd St.",
    "city": "Fort Smith",
    "zip_code": 72904,
    "country": "US",
    "latitude": 35.399753,
    "longitude": -94.363077,
    "Coordinate": "35.399753, -94.363077"
  },
  {
    "state": "AR",
    "name": "Texarkana Supercenter",
    "street_address": "133 Arkansas Blvd",
    "city": "Texarkana",
    "zip_code": 71854,
    "country": "US",
    "latitude": 33.462229,
    "longitude": -94.039851,
    "Coordinate": "33.462229, -94.039851"
  },
  {
    "state": "AR",
    "name": "El Dorado Supercenter",
    "street_address": "2730 N West Ave",
    "city": "El Dorado",
    "zip_code": 71730,
    "country": "US",
    "latitude": 33.2420091,
    "longitude": -92.6686538,
    "Coordinate": "33.2420091, -92.6686538"
  },
  {
    "state": "AR",
    "name": "West Helena Supercenter",
    "street_address": "602 Shelia Street",
    "city": "West Helena",
    "zip_code": 72390,
    "country": "US",
    "latitude": 34.555559,
    "longitude": -90.650674,
    "Coordinate": "34.555559, -90.650674"
  },
  {
    "state": "AR",
    "name": "Clinton Supercenter",
    "street_address": "1966 Highway 65 S",
    "city": "Clinton",
    "zip_code": 72031,
    "country": "US",
    "latitude": 35.5668534,
    "longitude": -92.4544415,
    "Coordinate": "35.5668534, -92.4544415"
  },
  {
    "state": "AR",
    "name": "Hope Supercenter",
    "street_address": "2400 N Hervey St",
    "city": "Hope",
    "zip_code": 71801,
    "country": "US",
    "latitude": 33.680812,
    "longitude": -93.614678,
    "Coordinate": "33.680812, -93.614678"
  },
  {
    "state": "AR",
    "name": "North Little Rock Supercenter",
    "street_address": "4450 E Mccain Blvd",
    "city": "North Little Rock",
    "zip_code": 72117,
    "country": "US",
    "latitude": 34.786482,
    "longitude": -92.214686,
    "Coordinate": "34.786482, -92.214686"
  },
  {
    "state": "AR",
    "name": "Mountain View Supercenter",
    "street_address": "409 Sylamore Ave",
    "city": "Mountain View",
    "zip_code": 72560,
    "country": "US",
    "latitude": 35.867227,
    "longitude": -92.101796,
    "Coordinate": "35.867227, -92.101796"
  },
  {
    "state": "AR",
    "name": "Flippin Supercenter",
    "street_address": "168 Walmart Drive",
    "city": "Flippin",
    "zip_code": 72634,
    "country": "US",
    "latitude": 36.275243,
    "longitude": -92.604523,
    "Coordinate": "36.275243, -92.604523"
  },
  {
    "state": "AR",
    "name": "Bentonville Pharmacy",
    "street_address": "702 Sw 8th St Pharmacy",
    "city": "Bentonville",
    "zip_code": 72712,
    "country": "US",
    "latitude": 36.365465,
    "longitude": -94.217632,
    "Coordinate": "36.365465, -94.217632"
  },
  {
    "state": "AR",
    "name": "Searcy Neighborhood Market",
    "street_address": "1330 W Beebe Capps Expy",
    "city": "Searcy",
    "zip_code": 72143,
    "country": "US",
    "latitude": 35.245796,
    "longitude": -91.750311,
    "Coordinate": "35.245796, -91.750311"
  },
  {
    "state": "AR",
    "name": "Conway Supercenter",
    "street_address": "3900 Dave Ward Dr",
    "city": "Conway",
    "zip_code": 72034,
    "country": "US",
    "latitude": 35.072895,
    "longitude": -92.495185,
    "Coordinate": "35.072895, -92.495185"
  },
  {
    "state": "AR",
    "name": "Cabot Supercenter",
    "street_address": "304 S Rockwood Dr",
    "city": "Cabot",
    "zip_code": 72023,
    "country": "US",
    "latitude": 34.976507,
    "longitude": -92.040706,
    "Coordinate": "34.976507, -92.040706"
  },
  {
    "state": "AR",
    "name": "Bentonville Neighborhood Market",
    "street_address": "3701 Se Dodson Rd",
    "city": "Bentonville",
    "zip_code": 72712,
    "country": "US",
    "latitude": 36.3342,
    "longitude": -94.197125,
    "Coordinate": "36.3342, -94.197125"
  },
  {
    "state": "AR",
    "name": "Bentonville Neighborhood Market",
    "street_address": "1703 E. Central Ave",
    "city": "Bentonville",
    "zip_code": 72712,
    "country": "US",
    "latitude": 36.372286,
    "longitude": -94.189049,
    "Coordinate": "36.372286, -94.189049"
  },
  {
    "state": "AR",
    "name": "Bentonville Neighborhood Market",
    "street_address": "3510 Se 14th St",
    "city": "Bentonville",
    "zip_code": 72712,
    "country": "US",
    "latitude": 36.354297,
    "longitude": -94.171075,
    "Coordinate": "36.354297, -94.171075"
  },
  {
    "state": "AR",
    "name": "Springdale Neighborhood Market",
    "street_address": "1375 Market Square Dr",
    "city": "Springdale",
    "zip_code": 72762,
    "country": "US",
    "latitude": 36.173364,
    "longitude": -94.162507,
    "Coordinate": "36.173364, -94.162507"
  },
  {
    "state": "AR",
    "name": "Sherwood Neighborhood Market",
    "street_address": "8801 Highway 107",
    "city": "Sherwood",
    "zip_code": 72120,
    "country": "US",
    "latitude": 34.83526,
    "longitude": -92.233136,
    "Coordinate": "34.83526, -92.233136"
  },
  {
    "state": "AR",
    "name": "Fort Smith Neighborhood Market",
    "street_address": "4900 Rogers Ave Ste 101j",
    "city": "Fort Smith",
    "zip_code": 72903,
    "country": "US",
    "latitude": 35.364078,
    "longitude": -94.37876,
    "Coordinate": "35.364078, -94.37876"
  },
  {
    "state": "AR",
    "name": "Fayetteville Neighborhood Market",
    "street_address": "2690 E Citizens Dr",
    "city": "Fayetteville",
    "zip_code": 72703,
    "country": "US",
    "latitude": 36.089556,
    "longitude": -94.12304,
    "Coordinate": "36.089556, -94.12304"
  },
  {
    "state": "AR",
    "name": "Fayetteville Pharmacy",
    "street_address": "616 N Garland Ave Ste 363",
    "city": "Fayetteville",
    "zip_code": 72701,
    "country": "US",
    "latitude": 36.073259,
    "longitude": -94.175171,
    "Coordinate": "36.073259, -94.175171"
  },
  {
    "state": "AR",
    "name": "Bentonville Neighborhood Market",
    "street_address": "205 N. Main Street",
    "city": "Bentonville",
    "zip_code": 72712,
    "country": "US",
    "latitude": 36.373539,
    "longitude": -94.209408,
    "Coordinate": "36.373539, -94.209408"
  },
  {
    "state": "AR",
    "name": "Conway Neighborhood Market",
    "street_address": "2550 Prince St",
    "city": "Conway",
    "zip_code": 72034,
    "country": "US",
    "latitude": 35.094647,
    "longitude": -92.462954,
    "Coordinate": "35.094647, -92.462954"
  },
  {
    "state": "AR",
    "name": "Bryant Supercenter",
    "street_address": "400 Bryant Ave",
    "city": "Bryant",
    "zip_code": 72022,
    "country": "US",
    "latitude": 34.624206,
    "longitude": -92.494451,
    "Coordinate": "34.624206, -92.494451"
  },
  {
    "state": "AR",
    "name": "Greenwood Supercenter",
    "street_address": "551 Liberty Dr",
    "city": "Greenwood",
    "zip_code": 72936,
    "country": "US",
    "latitude": 35.220709,
    "longitude": -94.296655,
    "Coordinate": "35.220709, -94.296655"
  },
  {
    "state": "AR",
    "name": "Pine Bluff Supercenter",
    "street_address": "5501 S Olive St",
    "city": "Pine Bluff",
    "zip_code": 71603,
    "country": "US",
    "latitude": 34.173882,
    "longitude": -92.003129,
    "Coordinate": "34.173882, -92.003129"
  },
  {
    "state": "AR",
    "name": "Rogers Neighborhood Market",
    "street_address": "1819 S 8th St",
    "city": "Rogers",
    "zip_code": 72756,
    "country": "US",
    "latitude": 36.313274,
    "longitude": -94.124282,
    "Coordinate": "36.313274, -94.124282"
  },
  {
    "state": "AR",
    "name": "Rogers Neighborhood Market",
    "street_address": "808 W. Walnut",
    "city": "Rogers",
    "zip_code": 72756,
    "country": "US",
    "latitude": 36.332473,
    "longitude": -94.126607,
    "Coordinate": "36.332473, -94.126607"
  },
  {
    "state": "AR",
    "name": "Springdale Supercenter",
    "street_address": "4870 Elm Springs Road",
    "city": "Springdale",
    "zip_code": 72762,
    "country": "US",
    "latitude": 36.1961316,
    "longitude": -94.1839495,
    "Coordinate": "36.1961316, -94.1839495"
  },
  {
    "state": "AR",
    "name": "Russellville Neighborhood Market",
    "street_address": "2109 W Main St",
    "city": "Russellville",
    "zip_code": 72801,
    "country": "US",
    "latitude": 35.282606,
    "longitude": -93.153513,
    "Coordinate": "35.282606, -93.153513"
  },
  {
    "state": "AR",
    "name": "Beebe Supercenter",
    "street_address": "2003 W. Center St",
    "city": "Beebe",
    "zip_code": 72012,
    "country": "US",
    "latitude": 35.06565,
    "longitude": -91.905412,
    "Coordinate": "35.06565, -91.905412"
  },
  {
    "state": "AR",
    "name": "Springdale Neighborhood Market",
    "street_address": "4900 Jennifer Terrace",
    "city": "Springdale",
    "zip_code": 72762,
    "country": "US",
    "latitude": 36.152784,
    "longitude": -94.185393,
    "Coordinate": "36.152784, -94.185393"
  },
  {
    "state": "AR",
    "name": "Bentonville Neighborhood Market",
    "street_address": "1400 N Walton Blvd",
    "city": "Bentonville",
    "zip_code": 72712,
    "country": "US",
    "latitude": 36.389152,
    "longitude": -94.219316,
    "Coordinate": "36.389152, -94.219316"
  },
  {
    "state": "AR",
    "name": "North Little Rock Supercenter",
    "street_address": "12001 Maumelle Blvd",
    "city": "North Little Rock",
    "zip_code": 72113,
    "country": "US",
    "latitude": 34.831972,
    "longitude": -92.394811,
    "Coordinate": "34.831972, -92.394811"
  },
  {
    "state": "AR",
    "name": "Fayetteville Neighborhood Market",
    "street_address": "660 W Martin Luther King Blvd",
    "city": "Fayetteville",
    "zip_code": 72701,
    "country": "US",
    "latitude": 36.05757,
    "longitude": -94.168541,
    "Coordinate": "36.05757, -94.168541"
  },
  {
    "state": "AR",
    "name": "Fort Smith Neighborhood Market",
    "street_address": "8600 Us Hwy 71 S",
    "city": "Fort Smith",
    "zip_code": 72908,
    "country": "US",
    "latitude": 35.3033487,
    "longitude": -94.3947163,
    "Coordinate": "35.3033487, -94.3947163"
  },
  {
    "state": "AR",
    "name": "Bentonville Neighborhood Market",
    "street_address": "906 Sw Regional Airport Blvd",
    "city": "Bentonville",
    "zip_code": 72712,
    "country": "US",
    "latitude": 36.337252,
    "longitude": -94.223909,
    "Coordinate": "36.337252, -94.223909"
  },
  {
    "state": "AR",
    "name": "Marion Neighborhood Market",
    "street_address": "2100 Highway 77",
    "city": "Marion",
    "zip_code": 72364,
    "country": "US",
    "latitude": 35.197986,
    "longitude": -90.182488,
    "Coordinate": "35.197986, -90.182488"
  },
  {
    "state": "AR",
    "name": "Little Rock Supercenter",
    "street_address": "19301 Cantrell Rd",
    "city": "Little Rock",
    "zip_code": 72223,
    "country": "US",
    "latitude": 34.809468,
    "longitude": -92.485983,
    "Coordinate": "34.809468, -92.485983"
  },
  {
    "state": "AR",
    "name": "Rogers Supercenter",
    "street_address": "4208 Pleasant Crossing Blvd",
    "city": "Rogers",
    "zip_code": 72758,
    "country": "US",
    "latitude": 36.278895,
    "longitude": -94.151209,
    "Coordinate": "36.278895, -94.151209"
  },
  {
    "state": "AR",
    "name": "Hot Springs Village Supercenter",
    "street_address": "3604 N Highway 7",
    "city": "Hot Springs Village",
    "zip_code": 71909,
    "country": "US",
    "latitude": 34.632394,
    "longitude": -93.055836,
    "Coordinate": "34.632394, -93.055836"
  },
  {
    "state": "AR",
    "name": "Little Rock Supercenter",
    "street_address": "700 Bowman Rd",
    "city": "Little Rock",
    "zip_code": 72211,
    "country": "US",
    "latitude": 34.748243,
    "longitude": -92.410566,
    "Coordinate": "34.748243, -92.410566"
  },
  {
    "state": "AR",
    "name": "Springdale Neighborhood Market",
    "street_address": "3553 E Robinson Ave",
    "city": "Springdale",
    "zip_code": 72764,
    "country": "US",
    "latitude": 36.164109,
    "longitude": -94.091657,
    "Coordinate": "36.164109, -94.091657"
  },
  {
    "state": "AR",
    "name": "Fayetteville Neighborhood Market",
    "street_address": "3475 W Black Forest Drive",
    "city": "Fayetteville",
    "zip_code": 72704,
    "country": "US",
    "latitude": 36.076341,
    "longitude": -94.210117,
    "Coordinate": "36.076341, -94.210117"
  },
  {
    "state": "AR",
    "name": "Paragould Neighborhood Market",
    "street_address": "2600 Linwood Dr",
    "city": "Paragould",
    "zip_code": 72450,
    "country": "US",
    "latitude": 36.030222,
    "longitude": -90.52319,
    "Coordinate": "36.030222, -90.52319"
  },
  {
    "state": "AR",
    "name": "Hot Springs Neighborhood Market",
    "street_address": "1640 Airport Road",
    "city": "Hot Springs",
    "zip_code": 71913,
    "country": "US",
    "latitude": 34.468587,
    "longitude": -93.141385,
    "Coordinate": "34.468587, -93.141385"
  },
  {
    "state": "AR",
    "name": "Hot Springs Neighborhood Market",
    "street_address": "1544 Malvern Ave",
    "city": "Hot Springs",
    "zip_code": 71901,
    "country": "US",
    "latitude": 34.494271,
    "longitude": -93.040121,
    "Coordinate": "34.494271, -93.040121"
  },
  {
    "state": "AR",
    "name": "Rogers Pharmacy",
    "street_address": "2708 S Rife Medical Ln Ste 110",
    "city": "Rogers",
    "zip_code": 72758,
    "country": "US",
    "latitude": 36.3312667,
    "longitude": -94.1548426,
    "Coordinate": "36.3312667, -94.1548426"
  },
  {
    "state": "AR",
    "name": "Rogers Neighborhood Market",
    "street_address": "5000 Pauline Whitaker Parkway",
    "city": "Rogers",
    "zip_code": 72758,
    "country": "US",
    "latitude": 36.2955619,
    "longitude": -94.185901,
    "Coordinate": "36.2955619, -94.185901"
  },
  {
    "state": "AR",
    "name": "Jonesboro Neighborhood Market",
    "street_address": "3319 Harrisburg Road",
    "city": "Jonesboro",
    "zip_code": 72404,
    "country": "US",
    "latitude": 35.802834,
    "longitude": -90.698816,
    "Coordinate": "35.802834, -90.698816"
  },
  {
    "state": "AR",
    "name": "Centerton Neighborhood Market",
    "street_address": "1800 E Centerton Blvd",
    "city": "Centerton",
    "zip_code": 72712,
    "country": "US",
    "latitude": 36.358876,
    "longitude": -94.253016,
    "Coordinate": "36.358876, -94.253016"
  },
  {
    "state": "AR",
    "name": "Jonesboro Neighborhood Market",
    "street_address": "2811 Creek Dr",
    "city": "Jonesboro",
    "zip_code": 72401,
    "country": "US",
    "latitude": 35.825481,
    "longitude": -90.671364,
    "Coordinate": "35.825481, -90.671364"
  },
  {
    "state": "AR",
    "name": "Pea Ridge Neighborhood Market",
    "street_address": "240 Slack Street",
    "city": "Pea Ridge",
    "zip_code": 72751,
    "country": "US",
    "latitude": 36.443317,
    "longitude": -94.1191402,
    "Coordinate": "36.443317, -94.1191402"
  },
  {
    "state": "AR",
    "name": "Cabot Neighborhood Market",
    "street_address": "1203 S. Pine St",
    "city": "Cabot",
    "zip_code": 72023,
    "country": "US",
    "latitude": 34.9533761,
    "longitude": -92.0069825,
    "Coordinate": "34.9533761, -92.0069825"
  },
  {
    "state": "AR",
    "name": "Siloam Springs Neighborhood Market",
    "street_address": "935 S. Holly St",
    "city": "Siloam Springs",
    "zip_code": 72761,
    "country": "US",
    "latitude": 36.1752349,
    "longitude": -94.557579,
    "Coordinate": "36.1752349, -94.557579"
  },
  {
    "state": "AR",
    "name": "Farmington Neighborhood Market",
    "street_address": "367 W Main St",
    "city": "Farmington",
    "zip_code": 72730,
    "country": "US",
    "latitude": 36.036758,
    "longitude": -94.256232,
    "Coordinate": "36.036758, -94.256232"
  },
  {
    "state": "AR",
    "name": "Greenbrier Neighborhood Market",
    "street_address": "75 South Broadview",
    "city": "Greenbrier",
    "zip_code": 72058,
    "country": "US",
    "latitude": 35.225788,
    "longitude": -92.389561,
    "Coordinate": "35.225788, -92.389561"
  },
  {
    "state": "AR",
    "name": "Bentonville Gas Station",
    "street_address": "1300 S Walton Blvd",
    "city": "Bentonville",
    "zip_code": 72712,
    "country": "US",
    "latitude": 36.357486,
    "longitude": -94.214669,
    "Coordinate": "36.357486, -94.214669"
  },
  {
    "state": "AZ",
    "name": "Safford Supercenter",
    "street_address": "755 S 20th Ave",
    "city": "Safford",
    "zip_code": 85546,
    "country": "US",
    "latitude": 32.832703,
    "longitude": -109.730199,
    "Coordinate": "32.832703, -109.730199"
  },
  {
    "state": "AZ",
    "name": "Flagstaff Store",
    "street_address": "2750 S Woodlands Village Blvd",
    "city": "Flagstaff",
    "zip_code": 86001,
    "country": "US",
    "latitude": 35.176555,
    "longitude": -111.664611,
    "Coordinate": "35.176555, -111.664611"
  },
  {
    "state": "AZ",
    "name": "Casa Grande Supercenter",
    "street_address": "1741 E Florence Blvd",
    "city": "Casa Grande",
    "zip_code": 85122,
    "country": "US",
    "latitude": 32.877207,
    "longitude": -111.712266,
    "Coordinate": "32.877207, -111.712266"
  },
  {
    "state": "AZ",
    "name": "Show Low Supercenter",
    "street_address": "5401 S White Mountain Rd",
    "city": "Show Low",
    "zip_code": 85901,
    "country": "US",
    "latitude": 34.20044,
    "longitude": -110.015671,
    "Coordinate": "34.20044, -110.015671"
  },
  {
    "state": "AZ",
    "name": "Sierra Vista Supercenter",
    "street_address": "500 N Highway 90 Byp",
    "city": "Sierra Vista",
    "zip_code": 85635,
    "country": "US",
    "latitude": 31.560187,
    "longitude": -110.260441,
    "Coordinate": "31.560187, -110.260441"
  },
  {
    "state": "AZ",
    "name": "Tucson Supercenter",
    "street_address": "7150 E Speedway Blvd",
    "city": "Tucson",
    "zip_code": 85710,
    "country": "US",
    "latitude": 32.23359,
    "longitude": -110.839581,
    "Coordinate": "32.23359, -110.839581"
  },
  {
    "state": "AZ",
    "name": "Cottonwood Supercenter",
    "street_address": "2003 E Rodeo Dr",
    "city": "Cottonwood",
    "zip_code": 86326,
    "country": "US",
    "latitude": 34.712898,
    "longitude": -112.001321,
    "Coordinate": "34.712898, -112.001321"
  },
  {
    "state": "AZ",
    "name": "Nogales Supercenter",
    "street_address": "100 W White Park Dr",
    "city": "Nogales",
    "zip_code": 85621,
    "country": "US",
    "latitude": 31.360324,
    "longitude": -110.932468,
    "Coordinate": "31.360324, -110.932468"
  },
  {
    "state": "AZ",
    "name": "Tucson Store",
    "street_address": "455 E Wetmore Rd",
    "city": "Tucson",
    "zip_code": 85705,
    "country": "US",
    "latitude": 32.288399,
    "longitude": -110.965014,
    "Coordinate": "32.288399, -110.965014"
  },
  {
    "state": "AZ",
    "name": "Winslow Supercenter",
    "street_address": "700 Mikes Pike St",
    "city": "Winslow",
    "zip_code": 86047,
    "country": "US",
    "latitude": 35.0433092,
    "longitude": -110.7016144,
    "Coordinate": "35.0433092, -110.7016144"
  },
  {
    "state": "AZ",
    "name": "Claypool Supercenter",
    "street_address": "100 South Ragus Rd",
    "city": "Claypool",
    "zip_code": 85532,
    "country": "US",
    "latitude": 33.41267,
    "longitude": -110.835723,
    "Coordinate": "33.41267, -110.835723"
  },
  {
    "state": "AZ",
    "name": "Bullhead City Supercenter",
    "street_address": "2840 Highway 95",
    "city": "Bullhead City",
    "zip_code": 86442,
    "country": "US",
    "latitude": 35.082534,
    "longitude": -114.5943,
    "Coordinate": "35.082534, -114.5943"
  },
  {
    "state": "AZ",
    "name": "Lake Havasu City Supercenter",
    "street_address": "5695 Highway 95 N",
    "city": "Lake Havasu City",
    "zip_code": 86404,
    "country": "US",
    "latitude": 34.571629,
    "longitude": -114.368101,
    "Coordinate": "34.571629, -114.368101"
  },
  {
    "state": "AZ",
    "name": "Payson Supercenter",
    "street_address": "300 N Beeline Hwy",
    "city": "Payson",
    "zip_code": 85541,
    "country": "US",
    "latitude": 34.244396,
    "longitude": -111.325344,
    "Coordinate": "34.244396, -111.325344"
  },
  {
    "state": "AZ",
    "name": "Apache Junction Supercenter",
    "street_address": "2555 W Apache Trl",
    "city": "Apache Junction",
    "zip_code": 85120,
    "country": "US",
    "latitude": 33.413821,
    "longitude": -111.5753437,
    "Coordinate": "33.413821, -111.5753437"
  },
  {
    "state": "AZ",
    "name": "Green Valley Supercenter",
    "street_address": "18680 S Nogales Hwy",
    "city": "Green Valley",
    "zip_code": 85614,
    "country": "US",
    "latitude": 31.912168,
    "longitude": -110.982594,
    "Coordinate": "31.912168, -110.982594"
  },
  {
    "state": "AZ",
    "name": "Prescott Supercenter",
    "street_address": "3050 E State Route 69",
    "city": "Prescott",
    "zip_code": 86301,
    "country": "US",
    "latitude": 34.554753,
    "longitude": -112.408542,
    "Coordinate": "34.554753, -112.408542"
  },
  {
    "state": "AZ",
    "name": "Page Supercenter",
    "street_address": "1017 West Haul Road",
    "city": "Page",
    "zip_code": 86040,
    "country": "US",
    "latitude": 36.904863,
    "longitude": -111.487252,
    "Coordinate": "36.904863, -111.487252"
  },
  {
    "state": "AZ",
    "name": "Yuma Supercenter",
    "street_address": "2900 S Pacific Ave",
    "city": "Yuma",
    "zip_code": 85365,
    "country": "US",
    "latitude": 32.6744478,
    "longitude": -114.6015699,
    "Coordinate": "32.6744478, -114.6015699"
  },
  {
    "state": "AZ",
    "name": "Chandler Supercenter",
    "street_address": "800 W Warner Rd",
    "city": "Chandler",
    "zip_code": 85225,
    "country": "US",
    "latitude": 33.337731,
    "longitude": -111.854681,
    "Coordinate": "33.337731, -111.854681"
  },
  {
    "state": "AZ",
    "name": "Peoria Supercenter",
    "street_address": "7975 W Peoria Ave",
    "city": "Peoria",
    "zip_code": 85345,
    "country": "US",
    "latitude": 33.5784583,
    "longitude": -112.2303209,
    "Coordinate": "33.5784583, -112.2303209"
  },
  {
    "state": "AZ",
    "name": "Glendale Supercenter",
    "street_address": "5845 W Bell Rd",
    "city": "Glendale",
    "zip_code": 85308,
    "country": "US",
    "latitude": 33.636517,
    "longitude": -112.184744,
    "Coordinate": "33.636517, -112.184744"
  },
  {
    "state": "AZ",
    "name": "Phoenix Supercenter",
    "street_address": "2020 N 75th Ave",
    "city": "Phoenix",
    "zip_code": 85035,
    "country": "US",
    "latitude": 33.470806,
    "longitude": -112.223505,
    "Coordinate": "33.470806, -112.223505"
  },
  {
    "state": "AZ",
    "name": "Phoenix Supercenter",
    "street_address": "4617 E Bell Rd",
    "city": "Phoenix",
    "zip_code": 85032,
    "country": "US",
    "latitude": 33.63843,
    "longitude": -111.981841,
    "Coordinate": "33.63843, -111.981841"
  },
  {
    "state": "AZ",
    "name": "Tucson Supercenter",
    "street_address": "1650 W Valencia Rd",
    "city": "Tucson",
    "zip_code": 85746,
    "country": "US",
    "latitude": 32.136724,
    "longitude": -111.000556,
    "Coordinate": "32.136724, -111.000556"
  },
  {
    "state": "AZ",
    "name": "Mesa Supercenter",
    "street_address": "6131 E Southern Ave",
    "city": "Mesa",
    "zip_code": 85206,
    "country": "US",
    "latitude": 33.391531,
    "longitude": -111.699115,
    "Coordinate": "33.391531, -111.699115"
  },
  {
    "state": "AZ",
    "name": "Tempe Supercenter",
    "street_address": "1380 W Elliot Rd",
    "city": "Tempe",
    "zip_code": 85284,
    "country": "US",
    "latitude": 33.35103,
    "longitude": -111.960968,
    "Coordinate": "33.35103, -111.960968"
  },
  {
    "state": "AZ",
    "name": "Douglas Supercenter",
    "street_address": "199 W 5th St",
    "city": "Douglas",
    "zip_code": 85607,
    "country": "US",
    "latitude": 31.338217,
    "longitude": -109.565561,
    "Coordinate": "31.338217, -109.565561"
  },
  {
    "state": "AZ",
    "name": "Kingman Supercenter",
    "street_address": "3396 Stockton Hill Rd",
    "city": "Kingman",
    "zip_code": 86409,
    "country": "US",
    "latitude": 35.222591,
    "longitude": -114.032729,
    "Coordinate": "35.222591, -114.032729"
  },
  {
    "state": "AZ",
    "name": "Scottsdale Supercenter",
    "street_address": "4915 N Pima Rd",
    "city": "Scottsdale",
    "zip_code": 85251,
    "country": "US",
    "latitude": 33.507771,
    "longitude": -111.889315,
    "Coordinate": "33.507771, -111.889315"
  },
  {
    "state": "AZ",
    "name": "Phoenix Supercenter",
    "street_address": "1607 W Bethany Home Rd",
    "city": "Phoenix",
    "zip_code": 85015,
    "country": "US",
    "latitude": 33.521957,
    "longitude": -112.092708,
    "Coordinate": "33.521957, -112.092708"
  },
  {
    "state": "AZ",
    "name": "Mesa Supercenter",
    "street_address": "857 N Dobson Rd",
    "city": "Mesa",
    "zip_code": 85201,
    "country": "US",
    "latitude": 33.431942,
    "longitude": -111.865295,
    "Coordinate": "33.431942, -111.865295"
  },
  {
    "state": "AZ",
    "name": "Phoenix Supercenter",
    "street_address": "1825 W Bell Rd",
    "city": "Phoenix",
    "zip_code": 85023,
    "country": "US",
    "latitude": 33.637216,
    "longitude": -112.098055,
    "Coordinate": "33.637216, -112.098055"
  },
  {
    "state": "AZ",
    "name": "Phoenix Supercenter",
    "street_address": "3721 E Thomas Rd",
    "city": "Phoenix",
    "zip_code": 85018,
    "country": "US",
    "latitude": 33.478722,
    "longitude": -112.000982,
    "Coordinate": "33.478722, -112.000982"
  },
  {
    "state": "AZ",
    "name": "Avondale Supercenter",
    "street_address": "13055 W Rancho Santa Fe Blvd",
    "city": "Avondale",
    "zip_code": 85392,
    "country": "US",
    "latitude": 33.459141,
    "longitude": -112.3381,
    "Coordinate": "33.459141, -112.3381"
  },
  {
    "state": "AZ",
    "name": "Phoenix Neighborhood Market",
    "street_address": "115 E Dunlap Ave",
    "city": "Phoenix",
    "zip_code": 85020,
    "country": "US",
    "latitude": 33.566489,
    "longitude": -112.072193,
    "Coordinate": "33.566489, -112.072193"
  },
  {
    "state": "AZ",
    "name": "Chandler Neighborhood Market",
    "street_address": "6085 W Chandler Blvd",
    "city": "Chandler",
    "zip_code": 85226,
    "country": "US",
    "latitude": 33.303752,
    "longitude": -111.947348,
    "Coordinate": "33.303752, -111.947348"
  },
  {
    "state": "AZ",
    "name": "Chandler Supercenter",
    "street_address": "1175 S Arizona Ave",
    "city": "Chandler",
    "zip_code": 85286,
    "country": "US",
    "latitude": 33.289278,
    "longitude": -111.838011,
    "Coordinate": "33.289278, -111.838011"
  },
  {
    "state": "AZ",
    "name": "Scottsdale Supercenter",
    "street_address": "15355 N Northsight Blvd",
    "city": "Scottsdale",
    "zip_code": 85260,
    "country": "US",
    "latitude": 33.624679,
    "longitude": -111.893377,
    "Coordinate": "33.624679, -111.893377"
  },
  {
    "state": "AZ",
    "name": "Mesa Supercenter",
    "street_address": "4505 E Mckellips Rd",
    "city": "Mesa",
    "zip_code": 85215,
    "country": "US",
    "latitude": 33.449105,
    "longitude": -111.733671,
    "Coordinate": "33.449105, -111.733671"
  },
  {
    "state": "AZ",
    "name": "Mesa Supercenter",
    "street_address": "1955 S Stapley Dr",
    "city": "Mesa",
    "zip_code": 85204,
    "country": "US",
    "latitude": 33.380445,
    "longitude": -111.802765,
    "Coordinate": "33.380445, -111.802765"
  },
  {
    "state": "AZ",
    "name": "Coolidge Supercenter",
    "street_address": "1695 N Arizona Blvd",
    "city": "Coolidge",
    "zip_code": 85128,
    "country": "US",
    "latitude": 33.000049,
    "longitude": -111.520207,
    "Coordinate": "33.000049, -111.520207"
  },
  {
    "state": "AZ",
    "name": "Surprise Supercenter",
    "street_address": "13770 W Bell Rd",
    "city": "Surprise",
    "zip_code": 85374,
    "country": "US",
    "latitude": 33.642779,
    "longitude": -112.358141,
    "Coordinate": "33.642779, -112.358141"
  },
  {
    "state": "AZ",
    "name": "Tucson Supercenter",
    "street_address": "7635 No. La Cholla B",
    "city": "Tucson",
    "zip_code": 85741,
    "country": "US",
    "latitude": 32.344184,
    "longitude": -111.016194,
    "Coordinate": "32.344184, -111.016194"
  },
  {
    "state": "AZ",
    "name": "Tucson Neighborhood Market",
    "street_address": "2550 S. Kolb Rd",
    "city": "Tucson",
    "zip_code": 85710,
    "country": "US",
    "latitude": 32.19303,
    "longitude": -110.842387,
    "Coordinate": "32.19303, -110.842387"
  },
  {
    "state": "AZ",
    "name": "Tucson Neighborhood Market",
    "street_address": "8640 E Broadway Blvd",
    "city": "Tucson",
    "zip_code": 85710,
    "country": "US",
    "latitude": 32.219825,
    "longitude": -110.807801,
    "Coordinate": "32.219825, -110.807801"
  },
  {
    "state": "AZ",
    "name": "Marana Neighborhood Market",
    "street_address": "3900 W. Ina Road",
    "city": "Marana",
    "zip_code": 85741,
    "country": "US",
    "latitude": 32.338897,
    "longitude": -111.04916,
    "Coordinate": "32.338897, -111.04916"
  },
  {
    "state": "AZ",
    "name": "Glendale Supercenter",
    "street_address": "18551 N 83rd Ave",
    "city": "Glendale",
    "zip_code": 85308,
    "country": "US",
    "latitude": 33.65067,
    "longitude": -112.234138,
    "Coordinate": "33.65067, -112.234138"
  },
  {
    "state": "AZ",
    "name": "Glendale Neighborhood Market",
    "street_address": "4230 W Union Hills Dr",
    "city": "Glendale",
    "zip_code": 85308,
    "country": "US",
    "latitude": 33.656074,
    "longitude": -112.150364,
    "Coordinate": "33.656074, -112.150364"
  },
  {
    "state": "AZ",
    "name": "Glendale Neighborhood Market",
    "street_address": "7450 W Glendale Ave",
    "city": "Glendale",
    "zip_code": 85303,
    "country": "US",
    "latitude": 33.539296,
    "longitude": -112.218862,
    "Coordinate": "33.539296, -112.218862"
  },
  {
    "state": "AZ",
    "name": "Tucson Neighborhood Market",
    "street_address": "3925 E Grant Rd",
    "city": "Tucson",
    "zip_code": 85712,
    "country": "US",
    "latitude": 32.25197,
    "longitude": -110.908802,
    "Coordinate": "32.25197, -110.908802"
  },
  {
    "state": "AZ",
    "name": "Chandler Supercenter",
    "street_address": "2750 E Germann Rd",
    "city": "Chandler",
    "zip_code": 85286,
    "country": "US",
    "latitude": 33.281575,
    "longitude": -111.793378,
    "Coordinate": "33.281575, -111.793378"
  },
  {
    "state": "AZ",
    "name": "Tucson Neighborhood Market",
    "street_address": "2823 W Valencia Rd",
    "city": "Tucson",
    "zip_code": 85746,
    "country": "US",
    "latitude": 32.132874,
    "longitude": -111.026742,
    "Coordinate": "32.132874, -111.026742"
  },
  {
    "state": "AZ",
    "name": "Oro Valley Supercenter",
    "street_address": "2150 E Tangerine Rd",
    "city": "Oro Valley",
    "zip_code": 85755,
    "country": "US",
    "latitude": 32.426075,
    "longitude": -110.940899,
    "Coordinate": "32.426075, -110.940899"
  },
  {
    "state": "AZ",
    "name": "Buckeye Supercenter",
    "street_address": "1060 S Watson Rd",
    "city": "Buckeye",
    "zip_code": 85326,
    "country": "US",
    "latitude": 33.436922,
    "longitude": -112.560303,
    "Coordinate": "33.436922, -112.560303"
  },
  {
    "state": "AZ",
    "name": "Glendale Supercenter",
    "street_address": "5010 N 95th Ave",
    "city": "Glendale",
    "zip_code": 85305,
    "country": "US",
    "latitude": 33.51025,
    "longitude": -112.267293,
    "Coordinate": "33.51025, -112.267293"
  },
  {
    "state": "AZ",
    "name": "Goodyear Neighborhood Market",
    "street_address": "14200 W Indian School Rd",
    "city": "Goodyear",
    "zip_code": 85395,
    "country": "US",
    "latitude": 33.4871959,
    "longitude": -112.3644107,
    "Coordinate": "33.4871959, -112.3644107"
  },
  {
    "state": "AZ",
    "name": "Prescott Valley Supercenter",
    "street_address": "3450 N Glassford Hill Rd",
    "city": "Prescott Valley",
    "zip_code": 86314,
    "country": "US",
    "latitude": 34.592452,
    "longitude": -112.341401,
    "Coordinate": "34.592452, -112.341401"
  },
  {
    "state": "AZ",
    "name": "San Tan Valley Supercenter",
    "street_address": "1725 W Hunt Hwy",
    "city": "San Tan Valley",
    "zip_code": 85143,
    "country": "US",
    "latitude": 33.176395,
    "longitude": -111.584612,
    "Coordinate": "33.176395, -111.584612"
  },
  {
    "state": "AZ",
    "name": "Phoenix Supercenter",
    "street_address": "6150 S 35th Ave",
    "city": "Phoenix",
    "zip_code": 85041,
    "country": "US",
    "latitude": 33.39053,
    "longitude": -112.136887,
    "Coordinate": "33.39053, -112.136887"
  },
  {
    "state": "AZ",
    "name": "Mesa Supercenter",
    "street_address": "240 W Baseline Rd",
    "city": "Mesa",
    "zip_code": 85210,
    "country": "US",
    "latitude": 33.380761,
    "longitude": -111.83672,
    "Coordinate": "33.380761, -111.83672"
  },
  {
    "state": "AZ",
    "name": "Benson Supercenter",
    "street_address": "201 S Prickly Pear Ave",
    "city": "Benson",
    "zip_code": 85602,
    "country": "US",
    "latitude": 31.968821,
    "longitude": -110.314252,
    "Coordinate": "31.968821, -110.314252"
  },
  {
    "state": "AZ",
    "name": "Mesa Supercenter",
    "street_address": "1606 S Signal Butte Rd",
    "city": "Mesa",
    "zip_code": 85209,
    "country": "US",
    "latitude": 33.38506,
    "longitude": -111.599933,
    "Coordinate": "33.38506, -111.599933"
  },
  {
    "state": "AZ",
    "name": "Mesa Neighborhood Market",
    "street_address": "2725 E Mckellips Rd",
    "city": "Mesa",
    "zip_code": 85213,
    "country": "US",
    "latitude": 33.449316,
    "longitude": -111.772239,
    "Coordinate": "33.449316, -111.772239"
  },
  {
    "state": "AZ",
    "name": "Glendale Neighborhood Market",
    "street_address": "6645 W Peoria Ave",
    "city": "Glendale",
    "zip_code": 85302,
    "country": "US",
    "latitude": 33.5802237,
    "longitude": -112.2019234,
    "Coordinate": "33.5802237, -112.2019234"
  },
  {
    "state": "AZ",
    "name": "Glendale Neighborhood Market",
    "street_address": "5137 W Olive Ave",
    "city": "Glendale",
    "zip_code": 85302,
    "country": "US",
    "latitude": 33.5647729,
    "longitude": -112.1700005,
    "Coordinate": "33.5647729, -112.1700005"
  },
  {
    "state": "AZ",
    "name": "Gilbert Supercenter",
    "street_address": "5290 S Power Rd",
    "city": "Gilbert",
    "zip_code": 85295,
    "country": "US",
    "latitude": 33.319619,
    "longitude": -111.689643,
    "Coordinate": "33.319619, -111.689643"
  },
  {
    "state": "AZ",
    "name": "Tucson Supercenter",
    "street_address": "3435 East Broadway Blvd",
    "city": "Tucson",
    "zip_code": 85716,
    "country": "US",
    "latitude": 32.2236403,
    "longitude": -110.9188725,
    "Coordinate": "32.2236403, -110.9188725"
  },
  {
    "state": "AZ",
    "name": "Peoria Supercenter",
    "street_address": "21655 N Lake Pleasant Pkwy",
    "city": "Peoria",
    "zip_code": 85382,
    "country": "US",
    "latitude": 33.680298,
    "longitude": -112.276167,
    "Coordinate": "33.680298, -112.276167"
  },
  {
    "state": "AZ",
    "name": "Tempe Pharmacy",
    "street_address": "671 E Apache Blvd",
    "city": "Tempe",
    "zip_code": 85281,
    "country": "US",
    "latitude": 33.414323,
    "longitude": -111.929432,
    "Coordinate": "33.414323, -111.929432"
  },
  {
    "state": "AZ",
    "name": "Fort Mohave Supercenter",
    "street_address": "5210 S. Hwy 95",
    "city": "Fort Mohave",
    "zip_code": 86426,
    "country": "US",
    "latitude": 35.005729,
    "longitude": -114.594695,
    "Coordinate": "35.005729, -114.594695"
  },
  {
    "state": "AZ",
    "name": "Surprise Neighborhood Market",
    "street_address": "15431 W Greenway Rd",
    "city": "Surprise",
    "zip_code": 85374,
    "country": "US",
    "latitude": 33.622677,
    "longitude": -112.392434,
    "Coordinate": "33.622677, -112.392434"
  },
  {
    "state": "AZ",
    "name": "Glendale Neighborhood Market",
    "street_address": "6550 West Happy Valley Rd",
    "city": "Glendale",
    "zip_code": 85310,
    "country": "US",
    "latitude": 33.713791,
    "longitude": -112.201314,
    "Coordinate": "33.713791, -112.201314"
  },
  {
    "state": "AZ",
    "name": "Phoenix Supercenter",
    "street_address": "4747 E Cactus Rd",
    "city": "Phoenix",
    "zip_code": 85032,
    "country": "US",
    "latitude": 33.596146,
    "longitude": -111.978633,
    "Coordinate": "33.596146, -111.978633"
  },
  {
    "state": "AZ",
    "name": "Flagstaff Supercenter",
    "street_address": "2601 E Huntington Dr",
    "city": "Flagstaff",
    "zip_code": 86004,
    "country": "US",
    "latitude": 35.199628,
    "longitude": -111.61427,
    "Coordinate": "35.199628, -111.61427"
  },
  {
    "state": "AZ",
    "name": "Oro Valley Neighborhood Market",
    "street_address": "7951 N Oracle Rd",
    "city": "Oro Valley",
    "zip_code": 85704,
    "country": "US",
    "latitude": 32.350839,
    "longitude": -110.977172,
    "Coordinate": "32.350839, -110.977172"
  },
  {
    "state": "AZ",
    "name": "Peoria Neighborhood Market",
    "street_address": "7421 West Thunderbird Road",
    "city": "Peoria",
    "zip_code": 85381,
    "country": "US",
    "latitude": 33.609159,
    "longitude": -112.21834,
    "Coordinate": "33.609159, -112.21834"
  },
  {
    "state": "AZ",
    "name": "Phoenix Neighborhood Market",
    "street_address": "2435 E Baseline Rd",
    "city": "Phoenix",
    "zip_code": 85042,
    "country": "US",
    "latitude": 33.376046,
    "longitude": -112.029277,
    "Coordinate": "33.376046, -112.029277"
  },
  {
    "state": "AZ",
    "name": "Chandler Neighborhood Market",
    "street_address": "1900 E Chandler Blvd",
    "city": "Chandler",
    "zip_code": 85225,
    "country": "US",
    "latitude": 33.30784,
    "longitude": -111.808474,
    "Coordinate": "33.30784, -111.808474"
  },
  {
    "state": "AZ",
    "name": "El Mirage Supercenter",
    "street_address": "12900 W Thunderbird Rd",
    "city": "El Mirage",
    "zip_code": 85335,
    "country": "US",
    "latitude": 33.610608,
    "longitude": -112.33649,
    "Coordinate": "33.610608, -112.33649"
  },
  {
    "state": "AZ",
    "name": "Yuma Supercenter",
    "street_address": "8151 E 32nd St",
    "city": "Yuma",
    "zip_code": 85365,
    "country": "US",
    "latitude": 32.668092,
    "longitude": -114.493126,
    "Coordinate": "32.668092, -114.493126"
  },
  {
    "state": "AZ",
    "name": "San Luis Supercenter",
    "street_address": "1613 North Main Street",
    "city": "San Luis",
    "zip_code": 85349,
    "country": "US",
    "latitude": 32.507315,
    "longitude": -114.783442,
    "Coordinate": "32.507315, -114.783442"
  },
  {
    "state": "AZ",
    "name": "Taylor Supercenter",
    "street_address": "715 N. Main Street",
    "city": "Taylor",
    "zip_code": 85939,
    "country": "US",
    "latitude": 34.473964,
    "longitude": -110.086009,
    "Coordinate": "34.473964, -110.086009"
  },
  {
    "state": "AZ",
    "name": "Maricopa Supercenter",
    "street_address": "41650 W Maricopa Casa Grande Hwy",
    "city": "Maricopa",
    "zip_code": 85138,
    "country": "US",
    "latitude": 33.039071,
    "longitude": -112.014193,
    "Coordinate": "33.039071, -112.014193"
  },
  {
    "state": "AZ",
    "name": "Queen Creek Supercenter",
    "street_address": "21055 E Rittenhouse Rd",
    "city": "Queen Creek",
    "zip_code": 85142,
    "country": "US",
    "latitude": 33.251461,
    "longitude": -111.629508,
    "Coordinate": "33.251461, -111.629508"
  },
  {
    "state": "AZ",
    "name": "Tucson Neighborhood Market",
    "street_address": "2175 W Ruthrauff Rd",
    "city": "Tucson",
    "zip_code": 85705,
    "country": "US",
    "latitude": 32.293147,
    "longitude": -111.01303,
    "Coordinate": "32.293147, -111.01303"
  },
  {
    "state": "AZ",
    "name": "Tucson Neighborhood Market",
    "street_address": "2565 E. Commerce Center Place",
    "city": "Tucson",
    "zip_code": 85706,
    "country": "US",
    "latitude": 32.147489,
    "longitude": -110.933161,
    "Coordinate": "32.147489, -110.933161"
  },
  {
    "state": "AZ",
    "name": "Parker Supercenter",
    "street_address": "100 W Riverside Dr",
    "city": "Parker",
    "zip_code": 85344,
    "country": "US",
    "latitude": 34.157361,
    "longitude": -114.277768,
    "Coordinate": "34.157361, -114.277768"
  },
  {
    "state": "AZ",
    "name": "Tucson Neighborhood Market",
    "street_address": "5500 E 22nd St",
    "city": "Tucson",
    "zip_code": 85711,
    "country": "US",
    "latitude": 32.205776,
    "longitude": -110.873984,
    "Coordinate": "32.205776, -110.873984"
  },
  {
    "state": "AZ",
    "name": "Tucson Supercenter",
    "street_address": "8280 N Cortaro Rd",
    "city": "Tucson",
    "zip_code": 85743,
    "country": "US",
    "latitude": 32.356336,
    "longitude": -111.089332,
    "Coordinate": "32.356336, -111.089332"
  },
  {
    "state": "AZ",
    "name": "Glendale Supercenter",
    "street_address": "5605 W Northern Ave",
    "city": "Glendale",
    "zip_code": 85301,
    "country": "US",
    "latitude": 33.551186,
    "longitude": -112.179904,
    "Coordinate": "33.551186, -112.179904"
  },
  {
    "state": "AZ",
    "name": "Gilbert Supercenter",
    "street_address": "2501 S Market St",
    "city": "Gilbert",
    "zip_code": 85295,
    "country": "US",
    "latitude": 33.304999,
    "longitude": -111.741012,
    "Coordinate": "33.304999, -111.741012"
  },
  {
    "state": "AZ",
    "name": "Phoenix Supercenter",
    "street_address": "5250 W Indian School Rd",
    "city": "Phoenix",
    "zip_code": 85031,
    "country": "US",
    "latitude": 33.496799,
    "longitude": -112.172642,
    "Coordinate": "33.496799, -112.172642"
  },
  {
    "state": "AZ",
    "name": "Phoenix Supercenter",
    "street_address": "2501 W Happy Valley Rd Ste 34",
    "city": "Phoenix",
    "zip_code": 85085,
    "country": "US",
    "latitude": 33.7083498,
    "longitude": -112.1129733,
    "Coordinate": "33.7083498, -112.1129733"
  },
  {
    "state": "AZ",
    "name": "Mesa Neighborhood Market",
    "street_address": "5122 E University Dr",
    "city": "Mesa",
    "zip_code": 85205,
    "country": "US",
    "latitude": 33.424031,
    "longitude": -111.72059,
    "Coordinate": "33.424031, -111.72059"
  },
  {
    "state": "AZ",
    "name": "Mesa Neighborhood Market",
    "street_address": "1916 S Lindsay Rd",
    "city": "Mesa",
    "zip_code": 85204,
    "country": "US",
    "latitude": 33.38032,
    "longitude": -111.772934,
    "Coordinate": "33.38032, -111.772934"
  },
  {
    "state": "AZ",
    "name": "Prescott Supercenter",
    "street_address": "1280 Gail Gardner Way",
    "city": "Prescott",
    "zip_code": 86305,
    "country": "US",
    "latitude": 34.565612,
    "longitude": -112.486112,
    "Coordinate": "34.565612, -112.486112"
  },
  {
    "state": "AZ",
    "name": "Phoenix Supercenter",
    "street_address": "7575 W Lower Buckeye Rd",
    "city": "Phoenix",
    "zip_code": 85043,
    "country": "US",
    "latitude": 33.4204018,
    "longitude": -112.2231893,
    "Coordinate": "33.4204018, -112.2231893"
  },
  {
    "state": "AZ",
    "name": "Anthem Supercenter",
    "street_address": "4435 W Anthem Way",
    "city": "Anthem",
    "zip_code": 85086,
    "country": "US",
    "latitude": 33.869614,
    "longitude": -112.154941,
    "Coordinate": "33.869614, -112.154941"
  },
  {
    "state": "AZ",
    "name": "Phoenix Supercenter",
    "street_address": "6145 N 35th Ave",
    "city": "Phoenix",
    "zip_code": 85017,
    "country": "US",
    "latitude": 33.526877,
    "longitude": -112.132538,
    "Coordinate": "33.526877, -112.132538"
  },